Course,City,State/Province,Country,Postal Code,# Holes,Rating,Approximate_Lat,Approximate_Lon
Aggieland Disc Golf,Hamilton,Alabama,United States,35570,18,0,34.163750,-87.993165
Arab City Park,Arab,Alabama,United States,35016,18,0,34.323870,-86.502006
Auburn University Montgomery (AUM),Montgomery,Alabama,United States,36117,22,0,32.378728,-86.145011
Bowers Park,Tuscaloosa,Alabama,United States,35405,18,4,33.120607,-87.538904
Brahan Springs Park,Huntsville,Alabama,United States,35805,18,3.333335,34.709368,-86.620290
Brush Creek Park,Waterloo,Alabama,United States,35677,18,0,34.955707,-88.026555
Capital City Disc Golf Course,St. Stephens,Alabama,United States,36569,18,0,31.542478,-88.091294
Casture Pattle Disc Golf Course,Lanett,Alabama,United States,36863,18,4,32.889494,-85.263750
Chapman Pines Disc Golf Course,Huntsville,Alabama,United States,35811,18,0,34.795354,-86.509948
Chickasabogue County Park - New Ridge,Eight Mile,Alabama,United States,36613,18,0,30.809841,-88.187450
Chickasabogue County Park - Original,Eight Mile,Alabama,United States,36613,18,4.5,30.809841,-88.187450
Chickasaw Community Park,Chickasaw,Alabama,United States,36611,18,4.333335,30.769623,-88.080073
Choccolocco Park,Oxford,Alabama,United States,36203,18,0,33.583080,-85.834626
Citronelle Municipal Park,Citronelle,Alabama,United States,36522,18,5,31.090945,-88.275355
Clanton Disc Golf Course,Clanton,Alabama,United States,35045,18,0,32.799962,-86.676761
Clay Disc Golf Course,Clay,Alabama,United States,35126,21,0,33.730771,-86.655119
Cottage Hill Park,Mobile,Alabama,United States,36695,18,3,30.628385,-88.280303
Creola City Park,Creola,Alabama,United States,36525,18,0,30.890103,-88.018704
Daphne Central Park,Daphne,Alabama,United States,36526,18,5,30.611152,-87.859918
Disc Golf Kymulga,Childersburg,Alabama,United States,35044,18,0,33.243975,-86.380759
Fairhope Municipal Park,Fairhope,Alabama,United States,36532,20,5,30.480713,-87.861306
Fairview Park Disc Golf Course,Fairview,Alabama,United States,35058,18,3,34.228856,-86.737261
Faulkner State Community College,Bay Minette,Alabama,United States,36507,18,0,30.858609,-87.742025
Flying Dragon Disc Golf Course,Decatur,Alabama,United States,35603,18,0,34.535452,-86.971226
Fort Rucker Flying Disc Golf Course,Fort Rucker,Alabama,United States,36362,18,5,31.350932,-85.679787
George Ward Park,Birmingham,Alabama,United States,35205,24,4,33.494995,-86.808077
Greg Carter Memorial Course,Russellville,Alabama,United States,35653,18,0,34.518191,-87.871965
Greg Carter Memorial Disc Golf Course,Trussville,Alabama,United States,35173,18,4,33.655407,-86.563109
H.A. Alexander Park,Moulton,Alabama,United States,35650,18,0,34.447233,-87.308593
Halawaka Park,Salem,Alabama,United States,36874,18,3,32.564252,-85.198549
Heritage Park,Cullman,Alabama,United States,35055,18,4.5,34.151121,-86.758808
Honda Park Disc Golf Course,Lincoln,Alabama,United States,35096,18,0,33.620336,-86.107668
Indian Creek Disc Golf Course,Huntsville,Alabama,United States,35806,20,3.75,34.760774,-86.685762
Inverness Disc Golf Park,Birmingham,Alabama,United States,35242,18,4,33.425247,-86.672084
Ivan K. Hill Disc Golf Course,Winfield,Alabama,United States,35594,18,5,33.932693,-87.774369
Joe Wheeler State Park,Rogersville,Alabama,United States,35652,18,0,34.846744,-87.310208
John Hunt Park,Huntsville,Alabama,United States,35802,18,1,34.668212,-86.558882
John Lemaster Memorial Disc Golf Course,Trussville,Alabama,United States,35173,18,5,33.655407,-86.563109
Kudzu Cove Disc Golf Course,Guntersville,Alabama,United States,35976,18,0,34.345767,-86.330025
Lake Ellis Disc Golf Course,Chatom,Alabama,United States,36518,18,0,31.459303,-88.284040
Lake Point Park,Heflin,Alabama,United States,36264,18,4,33.596783,-85.551483
Lakeside Disc Golf at Veterans Memorial Park,Florence,Alabama,United States,35630,18,5,34.822980,-87.661652
Lakeview Country Club,McCalla,Alabama,United States,35111,18,5,33.284352,-87.094878
Langan Municipal Park,Mobile,Alabama,United States,36608,19,3.5,30.681503,-88.300213
Live Oak Landing,Stockton,Alabama,United States,36579,18,0,31.106823,-87.796932
Magnolia Links,Mount Olive,Alabama,United States,35117,18,4,33.667778,-86.892599
Mastin Lake,Huntsville,Alabama,United States,35810,18,3.75,34.803193,-86.601445
McFarland Park Disc Golf,Florence,Alabama,United States,35630,18,4,34.822980,-87.661652
Monte Sano State Park,Huntsville,Alabama,United States,35801,18,4,34.725269,-86.560866
MRAG Disc Golf Course,Mobile,Alabama,United States,36618,18,0,30.736902,-88.169796
Municipal Red Disc Golf Course,Mobile,Alabama,United States,36608,18,0,30.681503,-88.300213
New Hope City Park Disc Golf Course,New Hope,Alabama,United States,35760,18,0,34.543906,-86.383856
North Jasper Park,Jasper,Alabama,United States,35503,18,0,33.936479,-87.305113
Ol' Colony Disc Golf Course,Tuscaloosa,Alabama,United States,35406,18,0,33.338867,-87.469325
Oliver Park Disc Golf Course,Calera,Alabama,United States,35040,18,0,33.102967,-86.728894
Palmore Park,Tuscaloosa,Alabama,United States,35401,18,0,33.170238,-87.616169
Pecan Hollow at Graham Creek Nature Preserve,Foley,Alabama,United States,36542,18,5,30.269654,-87.750627
Quail Creek One Disc Golf Course,Hartselle,Alabama,United States,35640,18,0,34.440702,-86.943677
Rainbow City Disc Golf Course,Rainbow City,Alabama,United States,35906,18,4,33.927149,-86.095113
Redstone Arsenal,Huntsville,Alabama,United States,35808,21,4,34.633027,-86.659057
Revelation Mountain,Pell City,Alabama,United States,35125,18,0,33.633384,-86.288692
Smiths Station Disc Golf Course,Smiths Station,Alabama,United States,36877,18,0,32.573153,-85.101369
Southside Park,Huntsville,Alabama,United States,35803,18,0,34.563461,-86.519399
Sparkman Park - Lakeside,Hartselle,Alabama,United States,35640,18,0,34.440702,-86.943677
Sparkman Park - Original,Hartselle,Alabama,United States,35640,18,2,34.440702,-86.943677
Sportsplex,Athens,Alabama,United States,35611,19,4,34.773833,-87.084145
Spring Hill College Disc Golf Course,Mobile,Alabama,United States,36608,18,0,30.681503,-88.300213
Springhill Hobbit Disc Golf Course,Mobile,Alabama,United States,36607,18,1,30.698560,-88.105760
The Admiral,Semmes,Alabama,United States,36575,18,0,30.769164,-88.273387
The Eagle Disc Golf Course,Jasper,Alabama,United States,35504,18,0,33.894135,-87.170812
The Oaks at Eastgate Park,Ashford,Alabama,United States,36312,18,0,31.170833,-85.236826
The Prairie at Graham Creek Nature Preserve,Foley,Alabama,United States,36535,18,5,30.383999,-87.727359
The Preserve at Graham Creek Nature Preserve,Foley,Alabama,United States,36535,18,5,30.383999,-87.727359
The Ridge,Springville,Alabama,United States,35146,18,0,33.795070,-86.453279
The River Course,Phenix City,Alabama,United States,36867,18,3,32.495317,-85.024588
The Tiger Trail at U of W. Alabama,Livingston,Alabama,United States,35470,18,0,32.561974,-88.066347
Tumble Tree Disc Golf Course,Opelika,Alabama,United States,36801,18,4.5,32.694763,-85.395626
Univ. of Ala. Huntsville (UAH),Huntsville,Alabama,United States,35805,18,0,34.709368,-86.620290
University of Mobile Disc Golf Course,Eight Mile,Alabama,United States,36613,18,0,30.809841,-88.187450
University of Montevallo,Montevallo,Alabama,United States,35115,18,0,33.142473,-86.891528
University of South Alabama,Mobile,Alabama,United States,36608,18,0,30.681503,-88.300213
Veterans Park DGC,Alabaster,Alabama,United States,35007,18,0,33.215623,-86.797656
Wallace State Community College,Hanceville,Alabama,United States,35057,18,0,34.180462,-86.934257
Aant'iyeik Park,Juneau,Alaska,United States,99801,18,0,58.372910,-134.178445
Alcantra Disc Golf - Big Su,Wasilla,Alaska,United States,99654,20,0,61.449113,-149.900744
Birch Ridge Disc Golf Course,Soldotna,Alaska,United States,99669,18,0,60.360150,-151.017884
Girdwood Forest Fair Park,Girdwood,Alaska,United States,99587,36,4,60.965808,-148.876643
Glacier Point,Glacier Point,Alaska,United States,99827,18,0,59.098771,-135.576936
Glass Park at Fort Wainwright,Fairbanks,Alaska,United States,99703,18,0,64.832624,-147.622719
Hilltop Ski Area,Anchorage,Alaska,United States,99507,18,5,61.147656,-149.753642
Kenai Eagle Disc Golf Course,Kenai,Alaska,United States,99611,18,0,60.600458,-151.106322
Kincaid Park Disc Golf Course,Anchorage,Alaska,United States,99502,18,4.666665,61.163643,-149.996609
Nikiski Recreation Center Disc Golf Course,Nikiski,Alaska,United States,99611,18,0,60.600458,-151.106322
North Point Higgins,Ketchikan,Alaska,United States,99901,18,0,55.540405,-131.105347
Peters Creek Disc Golf Course,Chugiak,Alaska,United States,99567,18,4,61.299351,-149.021091
Raven's Bowl,Haines,Alaska,United States,99827,18,0,59.098771,-135.576936
River City Disc Golf Course on Tsalteshi Trails,Soldotna,Alaska,United States,99669,19,0,60.360150,-151.017884
Seven Pastures,Skagway,Alaska,United States,99840,18,0,59.575097,-135.335418
The Moose Pretzel,Homer,Alaska,United States,99603,18,5,59.538519,-151.186927
UAF Gold Disc Golf Course,Fairbanks,Alaska,United States,99709,18,4,64.862968,-148.164072
A.V. Anderson Park Disc Golf Course,Sierra Vista,Arizona,United States,85635,18,3.5,31.571011,-110.170235
Arizona Snowbowl,Flagstaff,Arizona,United States,86001,18,4,35.287661,-111.639303
Blanchard Disc Golf Course,Tucson,Arizona,United States,85707,18,0,32.179204,-110.886913
Buffalo Ridge Park,Phoenix,Arizona,United States,85022,27,4,33.627240,-112.048414
Cactus Flats,Kingman,Arizona,United States,86409,18,0,35.461006,-114.018060
Cerbat Cliffs Golf Course,Kingman,Arizona,United States,86401,18,0,35.131719,-113.703932
Coldwater Ranch,Peoria,Arizona,United States,85383,18,0,33.807403,-112.251970
Conocido Park,Phoenix,Arizona,United States,85053,18,3.5,33.629922,-112.131609
Copper Sky,Maricopa,Arizona,United States,85139,18,0,32.979987,-112.144852
Emmanuel Pines Camp,Prescott,Arizona,United States,86305,18,0,34.864326,-112.911764
Fountain Hills Disc Golf Course,Fountain Hills,Arizona,United States,85268,19,4.5,33.606089,-111.743277
Four Seasons Disc Golf Course,Snowflake,Arizona,United States,85937,18,0,34.573702,-110.064102
Hidden Cove Disc Golf Course,Holbrook,Arizona,United States,86025,18,0,34.930781,-110.104808
Ironside Bluffs,Show Low,Arizona,United States,85901,18,5,34.314806,-110.024014
Marana Rock Disc Golf Course,Marana,Arizona,United States,85743,18,4.166665,32.302273,-111.181848
Maricopa Meadows,Maricopa,Arizona,United States,85138,27,0,33.007626,-111.989532
McPherson Park,Flagstaff,Arizona,United States,86001,18,3.5,35.287661,-111.639303
Moeur Park,Phoenix (Tempe),Arizona,United States,85282,18,4,33.393984,-111.932906
Mountain Meadow Ranch,Payson,Arizona,United States,85541,18,0,34.194537,-111.304309
Northern Arizona University Disc Golf Course,Flagstaff,Arizona,United States,86001,18,0,35.287661,-111.639303
Paseo Vista Recreation Area,Chandler,Arizona,United States,85286,18,3.666665,33.271981,-111.831774
Ponderosa Park,Prescott,Arizona,United States,86303,18,4,34.482405,-112.449649
Red Mountain - North,"Mesa,",Arizona,United States,85207,18,3,33.454586,-111.637972
Red Mountain - South,Mesa,Arizona,United States,85207,18,3,33.454586,-111.637972
Redline Disc Golf Course,Glendale,Arizona,United States,85303,18,0,33.532699,-112.221063
Rillito River Park Disc Golf Course,Tucson,Arizona,United States,85719,18,4.25,32.246719,-110.948657
Riverfront Park,Cottonwood,Arizona,United States,86326,18,4,34.700031,-112.023634
Santa Cruz River Park,Tucson,Arizona,United States,85745,18,3.5,32.253908,-111.080140
SARA Park Disc Golf Course,Lake Havasu City,Arizona,United States,86406,18,0,34.423236,-114.109863
School House Gulch,Prescott,Arizona,United States,86303,18,0,34.482405,-112.449649
Show Low Disc Golf Course,Show Low,Arizona,United States,85901,18,5,34.314806,-110.024014
Sundance Park,Buckeye,Arizona,United States,85326,18,5,33.293755,-112.590514
Sunrise Ski Resort,Fort Apache,Arizona,United States,85930,18,0,34.047324,-109.720674
Thorpe Park,Flagstaff,Arizona,United States,86001,18,2.5,35.287661,-111.639303
Thunderbird-Paseo,Phoenix (Glendale),Arizona,United States,85304,18,2.8,33.599739,-112.178276
Vista del Camino Park,Phoenix (Scottsdale),Arizona,United States,85257,18,4.5,33.461960,-111.916392
Watson Lake,Prescott,Arizona,United States,86301,18,4,34.587023,-112.429033
Wilderness Ranch,Lakeside,Arizona,United States,85929,18,0,34.184683,-109.939822
Willow Lake Disc Golf Course,Prescott,Arizona,United States,86301,18,0,34.587023,-112.429033
Wood Land,Pinetop-Lakeside,Arizona,United States,85929,18,4,34.184683,-109.939822
Alma Flying Disc Golf Course,Alma,Arkansas,United States,72921,18,0,35.477101,-94.196225
Arkadelphia Youth Sports Complex,Arkadelphia,Arkansas,United States,71923,18,4,34.085089,-93.045270
ASUMH Disc Golf Course,Mountain Home,Arkansas,United States,72653,18,0,36.342381,-92.385430
Beaverfork Disc Golf Course,Conway,Arkansas,United States,73032,18,4,34.398366,-97.047749
Bell Park Disc Golf Course,Greenwood,Arkansas,United States,72936,18,0,35.189721,-94.218511
Ben Geren Park - Massard Creek Disc Golf Course,Fort Smith,Arkansas,United States,72903,18,0,35.350978,-94.361247
Ben Geren Park - North Yellow,Fort Smith,Arkansas,United States,72916,18,4,35.260747,-94.390099
Ben Geren Park - South Orange,Fort Smith,Arkansas,United States,72916,18,0,35.260747,-94.390099
Bluegrass Trails Disc Golf Course,Mountain View,Arkansas,United States,72560,18,2.5,35.851011,-92.094066
Booneville Disc Golf Course,Booneville,Arkansas,United States,72927,18,0,35.080054,-93.939867
Branchwood Disc Golf Course,Bella Vista,Arkansas,United States,72715,18,5,36.467146,-94.304915
Burns Park - Blue,North Little Rock,Arkansas,United States,72118,18,0,34.840468,-92.326035
Burns Park - Red,North Little Rock,Arkansas,United States,72118,18,0,34.840468,-92.326035
Cedar Creek Disc Golf Course,West Fork,Arkansas,United States,72774,18,0,35.948327,-94.147185
Cedar Glades,Hot Springs,Arkansas,United States,71913,18,5,34.449239,-93.094266
Cline Park Disc Golf Course,Clarksville,Arkansas,United States,72830,18,0,35.509167,-93.515619
Clinton Disc Golf Course,Clinton,Arkansas,United States,72031,18,0,35.633661,-92.531647
Craighead Forest Disc Golf - Red,Jonesboro,Arkansas,United States,72404,18,0,35.773862,-90.778838
Craighead Forest Disc Golf - Yellow,Jonesboro,Arkansas,United States,72401,18,0,35.886344,-90.656774
Creekside Park Disc Golf Course,Farmington,Arkansas,United States,72730,18,0,36.030477,-94.268676
Deer Creek Disc Golf Course,Monticello,Arkansas,United States,71655,18,3.75,33.639802,-91.749587
DeGray Lake Resort State Park Disc Golf,Bismarck,Arkansas,United States,71929,18,0,34.303737,-93.159556
DeGray Lower Lake Disc Golf Course,Caddo Valley,Arkansas,United States,71923,18,5,34.085089,-93.045270
Disc Side of Heaven - Champ Course,Jonesboro,Arkansas,United States,72404,18,0,35.773862,-90.778838
Disc Side of Heaven - Rec Course,Jonesboro,Arkansas,United States,72404,18,0,35.773862,-90.778838
Dupree Park,Jacksonville,Arkansas,United States,72076,18,0,34.916182,-92.141483
Eighteens at The Pond - East,Little Rock,Arkansas,United States,72204,18,0,34.717617,-92.358338
Eighteens at The Pond - West,Little Rock,Arkansas,United States,72204,18,0,34.717617,-92.358338
Future Fuel Disc Golf Course,Batesville,Arkansas,United States,72501,18,0,35.791171,-91.653381
Greenbrier Disc Golf Course,Greenbrier,Arkansas,United States,72058,18,0,35.245918,-92.374199
Harding University,Searcy,Arkansas,United States,72143,18,3,35.232983,-91.736474
Industrial Park,Searcy,Arkansas,United States,72143,18,0,35.232983,-91.736474
JB Hunt Park - Main,Springdale,Arkansas,United States,72762,18,2,36.181650,-94.230680
Keaton Coyle Memorial Disc Golf Course,Prairie Grove,Arkansas,United States,72753,18,0,35.933889,-94.331072
Kerr Station Park,Cabot,Arkansas,United States,72023,18,3,34.964267,-92.063652
KJ Memorial Park,Lowell,Arkansas,United States,72745,18,4,36.246524,-94.102609
Lucas Pond Disc Golf Course,Crossett,Arkansas,United States,71635,18,0,33.131052,-91.996505
Mena Lions Club Disc Golf Course,Mena,Arkansas,United States,71953,18,0,34.608016,-94.197193
Mid-South Community College,West Memphis,Arkansas,United States,72301,18,0,35.144685,-90.189236
Mossy Bluff Disc Golf Course,Heber Springs,Arkansas,United States,72543,18,0,35.450539,-91.987292
Mulerider Disc Golf Course,Magnolia,Arkansas,United States,71753,18,0,33.225678,-93.184674
Nashville Disc Golf Course,Nashville,Arkansas,United States,71852,18,0,33.997681,-93.855553
Newark Disc Golf at Cedar Ridge,Newark,Arkansas,United States,72562,18,0,35.735469,-91.401119
North Arkansas College,Harrison,Arkansas,United States,72601,18,0,36.238028,-93.085992
Northshore,Fayetteville,Arkansas,United States,72764,18,4.25,36.175682,-94.060223
Old Post Park Disc Golf Course,Russellville,Arkansas,United States,72802,18,5,35.318940,-93.081593
Ouachita Baptist University Disc Golf Course,Arkadelphia,Arkansas,United States,71998,18,1,34.126385,-93.055286
Ozark Disc Golf at West Side Park,Ozark,Arkansas,United States,72949,18,0,35.584277,-93.805165
Persimmon Ridge Disc Golf Course,Greenbrier,Arkansas,United States,72058,18,0,35.245918,-92.374199
Pine Valley Golf Course,Sherwood,Arkansas,United States,72120,18,0,34.902043,-92.240819
Pirates Ridge Disc Golf Course,Calico Rock,Arkansas,United States,72519,18,0,36.134123,-92.180309
Pleasant View Disc Golf Course,Russellville,Arkansas,United States,72802,18,4,35.318940,-93.081593
Reservoir Park Disc Golf Course,Little Rock,Arkansas,United States,72227,18,0,34.775283,-92.374573
Sports Life Disc Golf,Springdale,Arkansas,United States,72762,18,0,36.181650,-94.230680
The Course at Lyon College,Batesville,Arkansas,United States,72501,18,0,35.791171,-91.653381
The Farm Disc Golf Course,Eureka Springs,Arkansas,United States,72631,18,0,36.467606,-93.834419
The TRAXX at Bishop Park,Bryant,Arkansas,United States,72022,18,0,34.607458,-92.488544
Twin Creeks Disc Golf Course,Rogers,Arkansas,United States,72758,18,2.5,36.299665,-94.137210
Tyndall Park Youth Disc Golf Course,Benton,Arkansas,United States,72015,18,0,34.485899,-92.585099
Waxhaws Disc Golf Course,Fayetteville,Arkansas,United States,72701,18,0,35.992387,-94.085584
Williams Baptist College Disc Golf Course,Walnut Ridge,Arkansas,United States,72476,18,0,36.049514,-90.919912
Winkler Disc Course,Harrison,Arkansas,United States,72601,18,0,36.238028,-93.085992
Anderson River Park,Anderson,California,United States,96007,18,3.5,40.458029,-122.277830
Anderson Valley Brewing Company,Boonville,California,United States,95494,18,3.666665,38.889651,-123.337821
Aptos High School Disc Golf Course,Aptos,California,United States,95003,18,4.4,37.006700,-121.878207
Aquatic Park,Berkeley,California,United States,94703,18,3,37.863911,-122.275643
Auburn Regional Park,Auburn,California,United States,95603,18,5,38.915869,-121.080284
Bartlett Park Disc Golf Course,Porterville,California,United States,93257,18,0,35.988087,-118.860221
Beachfront Park Disc Golf Course,Crescent City,California,United States,95531,24,3.5,41.819578,-124.065667
Beattie Park,Lompoc,California,United States,93436,18,3,34.595669,-120.352667
Beau Pre DiscGolfPark,McKinleyville,California,United States,95519,18,5,40.959368,-124.051236
Big Trees Golf Course,Yosemite National Park,California,United States,95389,18,0,37.626489,-119.681280
Bijou Community Park,South Lake Tahoe,California,United States,96150,27,5,38.869825,-120.008594
Birds of Paradise,Miranda,California,United States,95553,27,5,40.244215,-123.888871
Black Butte Lake Disc Golf Course,Orland,California,United States,95963,18,4.125,39.736308,-122.259338
Blackrock Disc Golf Course,Cobb,California,United States,95426,18,4,38.833425,-122.734061
Brengle Terrace Park Disc Golf Course,Vista,California,United States,92084,18,4,33.219935,-117.202606
Brooktrails Golf Course,Willits,California,United States,95490,18,5,39.492842,-123.340973
Browns and Bows,Browns Valley,California,United States,95918,36,0,39.301229,-121.337929
Browns and Bows Disc Golf Course - Back,Browns Valley,California,United States,95918,18,0,39.301229,-121.337929
Browns and Bows Disc Golf Course - Front,Browns Valley,California,United States,95918,18,5,39.301229,-121.337929
Buckeye Park,Redding,California,United States,96003,18,0,40.751937,-122.230678
Buckingham Golf Course,Kelseyville,California,United States,95451,18,0,38.922131,-122.789559
Cachuma Lake Disc Golf Course,Santa Barbara,California,United States,93105,18,4,34.533222,-119.791731
Cameron Park Lake Disc Golf Course,Cameron Park,California,United States,95682,18,0,38.612129,-120.964522
Carmel Middle School,Carmel,California,United States,93923,18,1,36.448672,-121.849502
Central Park Disc Golf Course,Santa Clarita,California,United States,91350,18,3.25,34.440891,-118.501747
Chavez Ridge Disc Golf Course at Elysian,Los Angeles,California,United States,90012,27,3.57143,34.065975,-118.238642
China Peak Disc Golf,Lakeshore,California,United States,93634,27,5,37.223580,-119.000834
City In the Hills,Bakersfield,California,United States,93306,18,0,35.468183,-118.779649
Coalinga Disc Golf Course,Coalinga,California,United States,93210,18,0,36.197785,-120.422249
Colina Park Golf Course,San Diego,California,United States,92105,18,4,32.737827,-117.092673
College of Marin Campus Course,Kentfield,California,United States,94904,18,0,37.945512,-122.560120
Colton Disc Golf Course,Colton,California,United States,92324,18,0,34.024520,-117.289255
Coyote Point Disc Golf Course at Lake Casitas,Ventura,California,United States,93001,18,4.833335,34.037340,-119.800786
Crane Creek Disc Golf,Santa Rosa,California,United States,95404,18,0,38.525733,-122.690443
Crowleg Disc Golf at Hickey Park,Hanford,California,United States,93230,18,0,36.292230,-119.622676
CSU San Marcos Disc Golf Course,San Marcos,California,United States,92078,18,1.5,33.117154,-117.180627
CSUMB Cypress Disc Golf Course,Seaside,California,United States,93955,20,4.25,36.614410,-121.786901
CSUMB Oaks Disc Golf Course,Seaside,California,United States,93955,20,3.666665,36.614410,-121.786901
David L. Baker Golf Course,Fountain Valley,California,United States,92708,18,5,33.710582,-117.951129
DeLaveaga Disc Golf Course,Santa Cruz,California,United States,95065,29,4.642855,37.031475,-121.983340
DeLaveaga Golf Course,Santa Cruz,California,United States,95065,18,0,37.031475,-121.983340
Dog Island Disc Golf,Red Bluff,California,United States,96080,18,4,40.181890,-122.377104
East La Loma Park,Modesto,California,United States,95354,27,4,37.639029,-120.964772
Edgewater Disc Golf Course,Redding,California,United States,96002,18,0,40.527834,-122.318749
El Dorado Park Disc Golf Course,Long Beach,California,United States,90815,18,4,33.794348,-118.116391
Emerald Hills Disc Golf Course,Redwood City,California,United States,94061,18,5,37.461147,-122.236948
Enterprise Community Park,Redding,California,United States,96002,18,2,40.527834,-122.318749
Escondido Rotary Disc Golf Course at Kit Carson Park,Escondido,California,United States,92025,18,3.5,33.102005,-117.080419
Evergreen Open Space,Santa Barbara (Goleta),California,United States,93117,18,3.5,34.479453,-120.084094
Fahrens Park Disc Golf Course,Merced,California,United States,95348,21,3,37.392287,-120.498299
Feeney,Murphys,California,United States,95247,18,0,38.138539,-120.452903
Finnon Lake,Placerville,California,United States,95667,27,4.285715,38.734925,-120.789952
Franklin Field,Taft,California,United States,93268,18,3,35.162393,-119.425116
Glen Helen Regional Park Disc Golf Course,San Bernardino,California,United States,92407,18,0,34.212433,-117.381239
Gleneagles Disc Golf Course,San Francisco,California,United States,94134,18,1,37.721052,-122.413573
Goat Hill Park,Oceanside,California,United States,92054,18,4,33.195534,-117.354538
Golden Gate Park Disc Golf Course,San Francisco,California,United States,94121,18,4.46154,37.776769,-122.494707
Hammon Grove Park,Browns Valley,California,United States,95918,18,3,39.301229,-121.337929
Hanging Oaks at Western Gateway Park,Penn Valley,California,United States,95946,18,4,39.215586,-121.203240
Hart Park - Shark Tooth Mountain Disc Golf Course,Bakersfield,California,United States,93308,18,3.5,35.621087,-118.789677
Hart Park - Suicide Flats,Bakersfield,California,United States,93308,18,5,35.621087,-118.789677
Heilmann Park,Atascadero,California,United States,93422,18,4,35.463544,-120.692911
Hensley Lake Disc Golf Course,Raymond,California,United States,93653,18,4.5,37.248335,-119.944935
Heritage Park Disc Golf Course,Lemoore,California,United States,93245,18,0,36.292270,-119.829463
Highland Springs Reservoir,Lakeport,California,United States,95453,23,3,39.045931,-122.941077
Huntington Beach Central Park,Huntington Beach,California,United States,92647,18,3.666665,33.723228,-118.008692
Kearney Park,Fresno,California,United States,93706,18,0,36.652065,-119.906591
Kelley Park Disc Golf Course,San Jose,California,United States,95112,18,4.5,37.344482,-121.883535
Kelly Ridge Golf Course,Oroville,California,United States,95966,18,4,39.475360,-121.414110
Kern River Golf Course,Bakersfield,California,United States,93306,18,0,35.468183,-118.779649
Kings River Disc Golf Course,Kingsburg,California,United States,93631,18,0,36.478239,-119.521370
Kirkwood Mountain Resort,Kirkwood,California,United States,95646,18,5,38.689261,-120.054975
KOA Campground,Willits,California,United States,95490,18,3,39.492842,-123.340973
La Mirada Regional Park - Back 18,La Mirada,California,United States,90638,18,4.666665,33.902045,-118.008961
La Mirada Regional Park - Lake 18,La Mirada,California,United States,90638,18,4.266665,33.902045,-118.008961
Lagoon Valley Disc Golf Course,Vacaville,California,United States,95687,27,4.5,38.333133,-121.920151
Laguna Lake,San Luis Obispo,California,United States,93405,18,2.25,35.296958,-120.733134
Lake Amador Campground,Ione,California,United States,95640,18,0,38.325248,-120.955787
Lake Amador North,Ione,California,United States,95640,18,0,38.325248,-120.955787
Lake Amador South,Ione,California,United States,95640,18,5,38.325248,-120.955787
Lake Chabot Disc Golf Course - Bay,Oakland,California,United States,94605,18,0,37.761408,-122.150198
Lake Chabot Disc Golf Course - Hills,Oakland,California,United States,94605,18,0,37.761408,-122.150198
Lake Mendocino (North),Ukiah,California,United States,95482,18,2,39.135023,-123.259338
Lake Mendocino (South),Ukiah,California,United States,95482,18,3,39.135023,-123.259338
Lava Creek Disc Golf,Paradise,California,United States,95969,18,3,39.716846,-121.646180
Lee Fong Park Disc Golf Course,Weaverville,California,United States,96093,18,0,40.765478,-122.941428
Low Gap Park,Ukiah,California,United States,95482,18,4,39.135023,-123.259338
Manchester Beach KOA,Manchester,California,United States,95459,18,2,38.976640,-123.604802
Mendocino College Disc Golf Course,Ukiah,California,United States,95482,27,3,39.135023,-123.259338
Mendocino High School,Mendocino,California,United States,95460,18,4,39.305245,-123.748616
Michael Faklis Park,Stockton,California,United States,95219,18,0,38.051726,-121.483036
Micke Grove Park,Lodi,California,United States,95240,18,4,38.114388,-121.144658
Millpond County Park,Bishop,California,United States,93514,18,0,37.492115,-118.390408
Miner's Point Disc Golf Course,Junction City,California,United States,96048,18,0,40.829014,-123.022859
Mission Bay Golf Course,San Diego,California,United States,92109,18,0,32.786772,-117.234207
Mission Hills,North Hills,California,United States,91343,18,3.5,34.237912,-118.482306
Mohawk Disc Golf Couse at Cachuma Lake,Santa Barbara,California,United States,93105,18,0,34.533222,-119.791731
Mojave Greens,Edwards AFB,California,United States,93524,18,5,34.931987,-117.907127
Mojave Narrows Disc Golf Course,Victorville,California,United States,92395,18,0,34.501472,-117.292048
Mollie Joyce Park Disc Golf Course,Pioneer,California,United States,95666,18,2.5,38.523861,-120.376629
Monarch Bay,San Leandro,California,United States,94577,18,0,37.713275,-122.167350
Morley Field,San Diego,California,United States,92104,19,4.3,32.741501,-117.127948
Mount Shasta Ski Park - Douglas Butte,McCloud,California,United States,96057,18,0,41.268682,-121.930940
Mountain Pride Disc Golf,Murrieta,California,United States,92562,18,4,33.547613,-117.344040
Mt. Baldy Disc Golf Course,Mt. Baldy,California,United States,91759,18,0,34.263636,-117.699470
Mt. Waterman Disc Golf Course,La Canada,California,United States,93553,18,4,34.407332,-117.911841
Narrows Disc Golf Course,Riverside,California,United States,92504,18,0,33.903134,-117.398044
New Hogan Dam - East,Valley Springs,California,United States,95252,18,0,38.149816,-120.846670
New Hogan Dam - West,Valley Springs,California,United States,95252,18,4,38.149816,-120.846670
Oak Grove (Hahamongna Park),Pasadena,California,United States,91103,21,3.916665,34.169538,-118.164941
Oak Grove Regional Park - Gold,Stockton,California,United States,95204,18,0,37.973736,-121.319246
Oak Grove Regional Park - Purple,Stockton,California,United States,95209,19,3,38.046863,-121.352802
Old Sawmill,Pacific Grove,California,United States,93950,24,0,36.621181,-121.925179
Oregon House Disc Golf Course,Oregon House,California,United States,95962,18,0,39.344757,-121.264517
Peregrine Point at Bidwell Park,Chico,California,United States,95928,18,4.25,39.685710,-121.844084
Perry Championship Disc Golf Course,Visalia,California,United States,93277,18,0,36.301334,-119.372586
Perry Outback Disc Golf Course,Visalia,California,United States,93277,18,0,36.301334,-119.372586
Pinto Lake Disc Golf Course,Watsonville,California,United States,95076,18,4.2,36.946256,-121.756479
Pioneer Park,Somerset,California,United States,95684,18,3.333335,38.592309,-120.584657
Prado Regional Park Disc Golf Course,Chino,California,United States,91708,18,3.75,33.952902,-117.639325
Preisker Disc Golf Course,Santa Maria,California,United States,93458,18,3,34.959340,-120.490081
Pug Ugly Mine Disc Golf at Quinones Park,San Andreas,California,United States,95249,18,2,38.189115,-120.638708
Rabbit Flats Disc Golf Course,Thousand Oaks,California,United States,91360,18,2.75,34.212805,-118.882179
Rancho Corralitos,Watsonville,California,United States,95076,18,0,36.946256,-121.756479
Rancho Murieta Disc Golf Course,Rancho Murieta,California,United States,95683,18,0,38.511992,-121.096261
Red Hawk Ridge,Rancho Corralitos,California,United States,95076,18,0,36.946256,-121.756479
Redwood Coast Rec Center,Gualala,California,United States,95445,18,3,38.832520,-123.472532
Reidy Creek Disc Golf,Escondido,California,United States,92026,18,4,33.212444,-117.116098
Rick's Revenge,Bear Valley,California,United States,95223,18,3,38.433968,-119.968436
River Oaks Golf Course,Ceres,California,United States,95307,18,0,37.554269,-120.951523
Riverbend Park - North,Oroville,California,United States,95965,18,3,39.593945,-121.581363
Riverbend Park - South,Oroville,California,United States,95965,18,2,39.593945,-121.581363
Rocklin Disc Golf Course at Johnson Springview Park,Rocklin,California,United States,95677,18,3.8,38.791075,-121.234854
Ryan Ranch Disc Golf Course,Monterey,California,United States,93940,29,4.142855,36.574690,-121.840854
Sacramento River RV Park,Redding,California,United States,96002,18,0,40.527834,-122.318749
Salmon River Disc Golf Course,Cecilville,California,United States,96031,18,0,41.186066,-123.181796
Sapwi Trails,Thousand Oaks,California,United States,91360,19,4.666665,34.212805,-118.882179
Shady Oaks Park,Sacramento (Orangevale),California,United States,95662,18,4.666665,38.689174,-121.218435
Shady Rest DiscGolfPark,Mammoth Lakes,California,United States,93546,18,0,37.548799,-118.839818
Shady Rest Park Disc Golf Course,Mammoth Lakes,California,United States,93546,18,0,37.548799,-118.839818
Shastice Park,Mount Shasta,California,United States,96067,18,0,41.314337,-122.380798
Sierra College Truckee,Truckee,California,United States,96161,18,5,39.313089,-120.207783
Skull Mountain,Somerset,California,United States,95684,20,0,38.592309,-120.584657
Sky High Disc Golf Course at Mtn. High North,Wrightwood,California,United States,93563,27,4.666665,34.402521,-117.766066
Skyline Disc Golf Course,Susanville,California,United States,96130,18,0,40.551757,-120.675673
Skyline Wilderness Park,Napa,California,United States,94559,18,4.333335,38.245724,-122.313405
South Pines Disc Golf Course,Magalia,California,United States,95954,18,0,39.884654,-121.586789
Southern Humboldt Community Park,Garberville,California,United States,95542,18,0,40.080405,-123.783948
Squaw Valley Disc Golf Course at High Camp,Olympic Valley,California,United States,96146,18,0,39.198047,-120.237787
Squirrel Creek at Condon Park,Grass Valley,California,United States,95945,18,4.5,39.196387,-120.972289
Stafford Lake County Park,Novato,California,United States,94947,23,4.75,38.112166,-122.634384
Stampede Disc Golf Course,Truckee,California,United States,96161,18,5,39.313089,-120.207783
Steelhead Disc Golf Course at Creekside,Willow Creek,California,United States,95573,18,0,40.914926,-123.668723
Stony Gorge Disc Golf Course,Elk Creek,California,United States,95939,18,0,39.571982,-122.580827
Swenson Park Disc Golf Course,Stockton,California,United States,95207,18,5,38.002125,-121.324979
Sylmar (Veterans Park),Sylmar,California,United States,91342,18,4.125,34.326584,-118.382261
Tahoe Vista Regional Disc Golf Course,Tahoe Vista,California,United States,96148,18,4.75,39.249050,-120.060428
Taylor Mountain Disc Golf Course,Santa Rosa,California,United States,95404,18,5,38.525733,-122.690443
The Gates of Hell Disc Golf Course,Valley Center,California,United States,92082,18,0,33.253548,-117.003366
The Ranch at Old River,Tracy,California,United States,95304,20,0,37.671103,-121.406559
The Redwood Curtain at Humboldt State University,Arcata,California,United States,95521,18,4.5,40.855694,-124.066898
The Stadium Course at Natividad Creek Park,Salinas,California,United States,93905,18,4,36.682351,-121.605904
Three Links Camp Disc Golf Course,Mi-Wuk Village,California,United States,95346,18,4,38.065529,-120.170699
Toney's Mountain Golf,Grass Valley,California,United States,95959,18,0,39.347811,-120.918728
Truckee River Regional Park,Truckee,California,United States,96161,18,4.6,39.313089,-120.207783
Turtle Rock Park Disc Golf,Markleeville,California,United States,96120,18,4,38.743384,-119.867624
Twain Harte Disc Golf Course,Twain Harte,California,United States,95383,18,0,38.112760,-120.225746
University of OB,Weed,California,United States,96094,18,3.5,41.456579,-122.469367
Van Buren Golf Center,Riverside,California,United States,92503,18,0,33.882579,-117.442303
Vandenberg AFB,Vandenberg Air Force Base,California,United States,93437,18,0,34.737964,-120.543739
Waller Park,Santa Maria,California,United States,93455,27,4.5,34.831792,-120.433509
Whale Rock Disc Golf Course,Templeton,California,United States,93465,18,4.5,35.538809,-120.739893
White Pines Park Disc Golf Course,Arnold,California,United States,95223,18,3,38.433968,-119.968436
Whittier Narrows Park,South El Monte,California,United States,91733,27,3.285715,34.046243,-118.053748
Willows Rotary Disc Golf,Willows,California,United States,95988,19,2.5,39.491654,-122.262080
Woodward Legacy Disc Golf Course,Fresno,California,United States,93720,18,3,36.862209,-119.760793
Wrightwood Country Club,Wrightwood,California,United States,92397,18,0,34.374009,-117.628429
Yucaipa Regional Park Disc Golf Course,Yucaipa,California,United States,92399,18,4,34.032301,-117.010574
10-3 at CB,Mt. Crested Butte,Colorado,United States,81225,27,4,38.966452,-106.926271
Adams Hollow,Brighton,Colorado,United States,80601,18,3.5,39.962027,-104.807809
Aggie Greens at Hughes Stadium,Ft. Collins,Colorado,United States,80521,18,3,40.594597,-105.127416
Alamosa Disc Golf Course,Alamosa,Colorado,United States,81101,18,4,37.481245,-105.833213
Arapahoe Basin Disc Golf Course,Dillon,Colorado,United States,80435,18,0,39.573695,-105.934609
Aspen Mountain,Aspen,Colorado,United States,81611,18,4,39.158172,-106.668560
Bailey Disc Golf Course,Bailey,Colorado,United States,80421,20,4.5,39.460932,-105.501199
Baldridge Park,Montrose,Colorado,United States,81401,18,3,38.484153,-107.772919
Beaver Creek Resort,Avon,Colorado,United States,81620,18,3,39.595601,-106.513435
Beaver Meadows Resort Ranch,Red Feather Lakes,Colorado,United States,80545,18,3.5,40.874586,-105.637727
Beaver Ranch - Bluebird Putting Course,Conifer,Colorado,United States,80433,20,4,39.477721,-105.262386
Beaver Ranch - Conifer,Conifer,Colorado,United States,80433,21,4.583335,39.477721,-105.262386
Bird's Nest Disc Park,Arvada,Colorado,United States,80007,24,3.4,39.862519,-105.192405
BuckSnort,Pine,Colorado,United States,80470,27,5,39.379793,-105.324404
Caddoa Disc Golf Course,Hasty,Colorado,United States,81044,18,0,37.859663,-102.947678
Camenisch Park - Badlands,Federal Heights,Colorado,United States,80260,18,2.75,39.866918,-105.006059
Camenisch Park - The Hylands,Denver,Colorado,United States,80260,18,0,39.866918,-105.006059
Centennial Park Course,Cortez,Colorado,United States,81321,18,0,37.312970,-108.734537
Central Park Disc Golf Course,Firestone,Colorado,United States,80504,18,0,40.163388,-105.030087
Centre Hills Park,Aurora,Colorado,United States,80011,18,2.5,39.738764,-104.782159
Cloman Park,Pagosa Springs,Colorado,United States,81147,18,4,37.322856,-107.085622
Colorado Mountain College - Leadville,Leadville,Colorado,United States,80461,18,4,39.231742,-106.313157
Colorado Mountain College Spring Valley,Glenwood Springs,Colorado,United States,81601,18,0,39.601304,-107.304388
Confluence Disc Golf Course,Delta,Colorado,United States,81416,18,0,38.752074,-108.136959
Cottonwood Creek Park,Colorado Springs,Colorado,United States,80918,18,3.333335,38.910393,-104.780362
Cowboy Course,Swink,Colorado,United States,81077,18,0,38.017621,-103.630845
Cross Creek Disc Golf Course,Gypsum,Colorado,United States,81637,18,5,39.777824,-107.105819
CSU Pueblo,Pueblo,Colorado,United States,81001,18,0,38.295719,-104.533434
Cumberland Green,Fountain,Colorado,United States,80817,18,4,38.638580,-104.686472
Delta County Fairgrounds,Hotchkiss,Colorado,United States,81419,18,0,38.881231,-107.745058
Devil's Thumb Ranch Resort and Spa,Tabernash,Colorado,United States,80482,18,0,39.897522,-105.785797
Double Cabin Disc Golf Course,Mountain Village,Colorado,United States,81435,18,0,37.908208,-107.860545
Dragons Breath,Denver,Colorado,United States,80235,18,0,39.647607,-105.089482
Dreamtime Ranch,Hartsel,Colorado,United States,80449,21,0,38.976576,-105.856797
Dreamtime Ranch,Hartsel,Colorado,United States,80432,21,0,39.222372,-105.796893
Dry Creek Disc Golf Course,Longmont,Colorado,United States,80503,18,2,40.169014,-105.210376
Easter Seals Disc Golf Course,Empire,Colorado,United States,80444,27,4,39.608406,-105.750988
Edora Park,Fort Collins,Colorado,United States,80525,18,4.333335,40.529861,-105.036641
Estates Park,Golden,Colorado,United States,80401,18,0,39.718726,-105.236031
Expo Park,Aurora,Colorado,United States,80012,18,3.42857,39.699735,-104.837643
Fehringer Ranch Park,Denver,Colorado,United States,80235,18,3.5,39.647607,-105.089482
Fire Mountain Disc Golf Course,New Castle,Colorado,United States,81647,18,0,39.610533,-107.566625
Flatirons West Gold Tees,Boulder,Colorado,United States,80303,18,0,39.973222,-105.209276
Fort Lewis College,Durango,Colorado,United States,81301,18,2,37.441078,-107.852781
Frisco Peak One Disc Golf Course,Frisco,Colorado,United States,80443,27,3.2,39.556393,-106.170245
Fruita Riverfront Park Disc Golf Course,Fruita,Colorado,United States,81521,18,0,39.130597,-108.806395
Gateway Canyons Resort Disc Golf,Gateway,Colorado,United States,81522,18,0,38.618218,-108.913333
Ghost Town,Russell Gulch,Colorado,United States,80427,20,4.285715,39.780281,-105.494960
Golden Bell Camp Disc Golf Course,Divide,Colorado,United States,80814,18,0,38.959653,-105.194278
Golden Eagle Disc Golf Course at Buckhorn Canyon,Bellvue,Colorado,United States,80512,18,5,40.631157,-105.574043
Grand Park Disc Golf Course,Fraser,Colorado,United States,80482,18,3,39.897522,-105.785797
Green Valley Ranch Disc Golf Course,Denver,Colorado,United States,80249,18,3.5,39.854746,-104.695804
Haybro Red Tail Disc Golf Course,Steamboat Springs,Colorado,United States,80467,18,5,40.206871,-106.825671
Hole in the Sky Disc Golf Course,Eagle,Colorado,United States,81631,18,4,39.629385,-106.750040
Johnny Roberts Disc Golf Course,Arvada,Colorado,United States,80004,18,4.1,39.817202,-105.123954
Lake Dillon Disc Golf Course,Dillon,Colorado,United States,80435,18,3,39.573695,-105.934609
Lakewood Dry Gulch,Denver,Colorado,United States,80204,21,0,39.734837,-105.020395
Lawson Adventure Park,Dumont,Colorado,United States,80436,18,0,39.780974,-105.640117
Liberty Pines Disc Golf Course,Woodland Park,Colorado,United States,80863,18,0,39.019995,-105.113586
Lion's Den Disc Golf Course,Lake George,Colorado,United States,80827,18,5,39.056483,-105.467359
Mark of the Devil Disc Golf Course,Cimarron,Colorado,United States,81220,20,0,38.308243,-107.480574
Matchett Park,Grand Junction,Colorado,United States,81506,18,3.333335,39.123368,-108.531757
Matney Park,Castle Rock,Colorado,United States,80104,18,2.5,39.276134,-104.832238
Mountain View Adventure Park,Cripple Creek,Colorado,United States,80813,18,0,38.805388,-105.158500
Mountaineer Disc Golf Course,Gunnison,Colorado,United States,81230,18,3,38.395065,-106.953683
Optimist Disc Golf Course,Fort Morgan,Colorado,United States,80701,27,4,40.165309,-103.870735
Pessimist DiscGolfPark,Fort Morgan,Colorado,United States,80701,18,0,40.165309,-103.870735
Phantom Falls Disc Golf Course,Pine,Colorado,United States,80470,30,4.25,39.379793,-105.324404
Pioneer Park Disc Golf Course,Hot Sulphur Springs,Colorado,United States,80451,18,3.5,40.098446,-106.073143
Pioneer Park Disc Golf Course,Sterling,Colorado,United States,80751,18,3,40.636880,-103.232406
Poncha Springs,Poncha Springs,Colorado,United States,81201,18,4.666665,38.554832,-106.066038
Prickly Pines,Elizabeth,Colorado,United States,80107,18,4,39.409358,-104.572571
Pueblo City Park,Pueblo,Colorado,United States,81005,18,4.25,38.197683,-104.810446
Rampart Disc Golf Course,Colorado Springs,Colorado,United States,80920,18,0,38.957598,-104.770770
Reservoir Hill,Pagosa Springs,Colorado,United States,81147,18,4,37.322856,-107.085622
Rio Grande River Retreat,Monte Vista,Colorado,United States,81132,18,5,37.711322,-106.429077
River Ranch Disc Golf Course,Johnstown,Colorado,United States,80534,18,2.8,40.331863,-104.937467
Riverbend Park,Palisade,Colorado,United States,81526,19,4,39.096926,-108.334424
Rockin' The Rails,Palmer Lake,Colorado,United States,80133,18,4,39.096847,-104.980513
Round Top Mountain Park,Lake City,Colorado,United States,81235,18,0,38.012835,-107.299418
Shining Mountain - Main,Woodland Park,Colorado,United States,80863,18,0,39.019995,-105.113586
Shining Mountain - Serenity Pines,Woodland Park,Colorado,United States,80863,18,0,39.019995,-105.113586
Shining Mountain - Whispering Pines,Woodland Park,Colorado,United States,80863,18,0,39.019995,-105.113586
Silver Spur Disc Golf Course,Steamboat Springs,Colorado,United States,80487,18,0,40.540952,-106.850132
Skol Ranch Disc Golf Course,Florissant,Colorado,United States,80816,18,0,38.857741,-105.315864
Sky Ranch Lutheran Camp,Bellvue,Colorado,United States,80512,18,0,40.631157,-105.574043
Snow Mountain Ranch YMCA,Tabernash,Colorado,United States,80478,18,4,40.029019,-105.852772
Snowmass Ski Resort Red Disc Golf Course,Snowmass Village,Colorado,United States,81615,18,0,39.220609,-106.929297
Snowmass Ski Resort Yellow Disc Golf Course,Snowmass Village,Colorado,United States,81615,18,0,39.220609,-106.929297
South Fork Disc Golf Course,South Fork,Colorado,United States,81154,18,0,37.575406,-106.603809
Springvale Park Disc Golf,Thornton,Colorado,United States,80602,18,3,39.966363,-104.908709
Sundance Trail Ranch Disc Golf Course,Red Feather Lakes,Colorado,United States,80545,18,4,40.874586,-105.637727
Sunlight Mountain Resort,Glenwood Springs,Colorado,United States,81601,18,0,39.601304,-107.304388
The Aviary Disc Golf Course,Colorado Springs,Colorado,United States,80906,18,3.5,38.752602,-104.878232
The Outback Disc Golf Course,Greeley,Colorado,United States,80634,18,4,40.403315,-104.792917
Thunderhead Disc Golf Course,Steamboat Springs,Colorado,United States,80477,19,4,40.486391,-106.829354
Timberline Academy Disc Golf Course,Durango,Colorado,United States,81301,18,0,37.441078,-107.852781
Town of Olathe Disc Golf Course,Olathe,Colorado,United States,81425,18,0,38.493599,-108.247485
Twisted Cedars Disc Golf Course,Trinidad,Colorado,United States,81082,27,0,37.181854,-104.518043
Two Mile High Disc Golf Course,Fairplay,Colorado,United States,80440,18,0,39.228920,-105.969828
Ultra DiscGolfPark - Anheuser-Busch Biergarten,Fort Collins,Colorado,United States,80524,18,0,40.646857,-105.029513
Valmont Disc Park,Boulder,Colorado,United States,80301,18,4.333335,40.049468,-105.201421
Village Greens Park,Greenwood Village,Colorado,United States,80111,18,3.5,39.613005,-104.877957
Wahatoya Valley,La Veta,Colorado,United States,81055,18,0,37.491667,-105.111560
Watson Island DIsc Golf Course,Grand Junction,Colorado,United States,81501,18,5,39.071848,-108.547131
West Fork Disc Golf Course,Highlands Ranch,Colorado,United States,80124,18,0,39.532889,-104.891089
Westcreek Disc Golf Course,Parker,Colorado,United States,80134,18,0,39.485499,-104.778638
Westminster Disc Golf Course,Westminster,Colorado,United States,80020,18,3.666665,39.930782,-105.074287
Widefield Park,Colorado Springs,Colorado,United States,80911,18,3.5,38.752916,-104.723477
Winter Park Resort,Winter Park,Colorado,United States,80482,21,4,39.897522,-105.785797
Wondervu Disc Golf Course,Golden,Colorado,United States,80473,18,0,40.416393,-106.134369
YMCA of the Rockies,Estes Park,Colorado,United States,80517,18,3,40.384744,-105.586376
Beaver Branch,Townsend,Delaware,United States,19734,18,0,39.381644,-75.653322
Bellevue State Park,Wilmington,Delaware,United States,19809,18,2,39.757786,-75.500953
Brandywine Creek State Park,Wilmington,Delaware,United States,19803,18,4.333335,39.800665,-75.542415
Canby West,Wilmington,Delaware,United States,19804,18,0,39.716862,-75.617677
Cape Henlopen State Park,Lewes,Delaware,United States,19958,19,5,38.728722,-75.168469
Greenridge Disc Golf Course,Newark,Delaware,United States,19711,19,0,39.713598,-75.741073
Iron Hill,Newark,Delaware,United States,19702,18,4.5,39.618200,-75.729724
Killens Pond State Park,Felton,Delaware,United States,19943,18,0,39.004436,-75.606986
Lums Pond State Park,Bear,Delaware,United States,19701,18,0,39.583171,-75.700899
Trap Pond State Park,Laurel,Delaware,United States,19956,18,0,38.547715,-75.538158
White Clay Creek State Park,Newark,Delaware,United States,19711,18,0,39.713598,-75.741073
65th Infantry Veterans Disc Golf Course,Kissimmee,Florida,United States,34743,18,5,28.329308,-81.355152
Amelia Earhart Park,Hialeah,Florida,United States,33013,18,3,25.862190,-80.269677
Ann Dever Park,Englewood,Florida,United States,34224,18,5,26.917571,-82.303940
Barnett Park - North,Orlando,Florida,United States,32808,18,3.333335,28.580110,-81.444300
Barnett Park - Parkside,Orlando,Florida,United States,32808,18,3,28.580110,-81.444300
Bill Frederick Park at Turkey Lake: The Original,Orlando,Florida,United States,32835,18,4,28.518730,-81.486227
Bill Frederick Park at Turkey Lake: The Woods,Orlando,Florida,United States,32835,18,4,28.518730,-81.486227
Bill Frederick Park; T2-The Turkeynator,Orlando,Florida,United States,32835,18,4,28.518730,-81.486227
Bird Bay Disc Golf Course,Venice,Florida,United States,34285,18,3,27.094564,-82.440895
Blue Angel Park - Oaks Disc Golf Course,Pensacola,Florida,United States,32506,18,4.5,30.391628,-87.369394
Blue Angel Park - Palmetto Disc Golf Course,Pensacola,Florida,United States,32506,18,4,30.391628,-87.369394
Blue Angel Park - Pines Disc Golf Course,Pensacola,Florida,United States,32506,18,4,30.391628,-87.369394
Bonita Springs Recreation Center,Bonita Springs,Florida,United States,34135,18,3.5,26.355541,-81.754320
ChainDragon at The Freeport Sports Complex,Freeport,Florida,United States,32439,18,4.333335,30.468323,-86.112017
Cliff Stephens Park,Clearwater,Florida,United States,33759,21,4.42857,27.975284,-82.701482
Commons Park,Royal Palm Beach,Florida,United States,33411,18,5,26.720012,-80.193151
Cypress Point Park Disc Golf Course,Tampa,Florida,United States,33067,18,4.5,26.305788,-80.223371
DeFunk Disco,DeFuniak Springs,Florida,United States,32433,18,5,30.851178,-86.200838
Doris Leeper Disc Golf Course,New Smyrna,Florida,United States,32168,18,5,28.963773,-81.029413
Dreher Park,WPB,Florida,United States,33405,18,5,26.669649,-80.058452
Easterlin Park,Ft. Lauderdale,Florida,United States,33309,18,3.75,26.185990,-80.172721
Ed Austin Park (Fore Palms Disc Golf Course),Jacksonville,Florida,United States,32225,24,3.75,30.357756,-81.505829
Edward Medard Disc Golf Park,Plant City,Florida,United States,33567,18,4.333335,27.920609,-82.116772
Estero Disc Golf Course,Estero,Florida,United States,33928,18,3,26.399034,-81.704725
F. Burton Smith Park,Cocoa,Florida,United States,32926,23,4,28.388697,-80.818152
Ferry Park,Fort Walton Beach,Florida,United States,32548,18,3,30.403001,-86.650482
Floral Park,Floral City,Florida,United States,34436,19,4.5,28.720580,-82.297980
Forest Hills Disc Golf and Country Club,Hoiliday,Florida,United States,34690,18,0,28.193745,-82.725706
FSU Panama City,Panama City,Florida,United States,32405,18,0,30.202068,-85.667403
G T Bray Park Disc Golf Course,Bradenton,Florida,United States,34209,18,0,27.500129,-82.651386
Gator Links at NLA,Milton,Florida,United States,32583,18,4,30.592511,-86.971003
Gordy Road Preserve Disc Golf Course,Fort Pierce,Florida,United States,34945,27,4,27.437265,-80.557230
Hidden Oaks Disc Golf Course,Lakeland,Florida,United States,33813,18,5,27.965132,-81.939522
Holland Park,New Smyrna Beach,Florida,United States,32168,18,0,28.963773,-81.029413
Holloway Park Disc Golf Course,Lakeland,Florida,United States,33803,18,0,28.009358,-81.932662
Homestead Air Reserve Park,Homestead,Florida,United States,33032,18,4,25.531517,-80.390800
House of Trees,Newberry,Florida,United States,32669,18,3,29.632156,-82.589919
Jack McLean Park,Tallahassee,Florida,United States,32305,24,0,30.332299,-84.300654
Jonesville Park,Gainesville,Florida,United States,32606,18,4,29.682064,-82.444115
Kendall Indian Hammocks Park (East),Miami (Kendall),Florida,United States,33176,18,2.333335,25.659873,-80.358354
Kendall Indian Hammocks Park (West),Miami (Kendall),Florida,United States,33176,18,3,25.659873,-80.358354
Lake Aurora Christian Camp,Lake Wales,Florida,United States,33898,18,3,27.840809,-81.372964
Lake Hiawatha Preserve,Clermont,Florida,United States,34711,18,0,28.530496,-81.753341
Lake Wauburg,Gainesville (Micanopy),Florida,United States,32667,18,3,29.513704,-82.304844
Lakeview Park,Sarasota,Florida,United States,34241,18,3.333335,27.250668,-82.377574
Lakewood Park,"Fort Pierce,",Florida,United States,34952,18,0,27.296128,-80.299313
Malabar Disc Golf,Malabar,Florida,United States,32950,18,2.8,27.980573,-80.569593
Markham Park,Sunrise,Florida,United States,33326,18,5,26.114333,-80.370670
McCarty Ranch Preserve Disc Golf Course,Port St. Lucie,Florida,United States,34987,18,0,27.290285,-80.497120
Moccasin Creek Disc Golf Course,Elkton,Florida,United States,32033,25,5,29.788112,-81.434324
Morgan Sports Center,Destin,Florida,United States,32541,18,4,30.392765,-86.469506
New World Disc Golf at Cecil Field,Jacksonville,Florida,United States,32221,20,5,30.256279,-81.853581
North Charlotte Regional Park,Port Charlotte,Florida,United States,33953,18,4.333335,26.999702,-82.212275
North East Coachman Park,Clearwater,Florida,United States,33765,18,3.5,27.974876,-82.745121
North Watertower Park,Sarasota,Florida,United States,34236,18,4.666665,27.316487,-82.553527
Northside Park,Gainesville,Florida,United States,32653,18,3.666665,29.745052,-82.393830
Ocala Greenway Disc Golf Course,Ocala,Florida,United States,34472,24,3.5,29.109474,-81.997364
Okeeheelee Park,West Palm Beach,Florida,United States,33413,18,4,26.663779,-80.151724
Oldsmar Disc Golf Course,Oldsmar,Florida,United States,34677,18,4.5,28.037526,-82.673020
Orangebrook Country Club,Hollywood,Florida,United States,33021,18,0,26.023130,-80.186539
Palm Bay Regional Disc Golf Course,Palm Bay,Florida,United States,32907,18,3.5,28.020804,-80.681247
Palmetto Bay Village Center,Palmetto Bay,Florida,United States,33157,21,3.5,25.606126,-80.343496
Palmetto Trails,Eustis,Florida,United States,32726,18,0,28.855051,-81.678843
PGA National Park,Palm Beach Gardens,Florida,United States,33418,18,1,26.872713,-80.165712
Picnic Island Disc Golf,Tampa,Florida,United States,33616,18,4,27.865136,-82.535394
Plantation Heritage Disc Golf Course,Plantation,Florida,United States,33317,18,4,26.112600,-80.227875
Post'l Point Disc Golf at Eglin Air Force Base,Eglin Air Force Base,Florida,United States,32542,18,4,30.464551,-86.525167
Reed Canal Park Disc Golf Course,South Daytona,Florida,United States,32119,18,3,29.161116,-81.025740
River City Nature Park - Alpha,DeBary,Florida,United States,32713,18,4,28.883730,-81.325287
River City Nature Park - Barwick,DeBary,Florida,United States,32713,18,5,28.883730,-81.325287
Riverside Church Disc Golf Course,Fort Myers,Florida,United States,33912,18,0,26.534017,-81.826175
Ronnie Van Zant Memorial,Green Cove Springs,Florida,United States,32043,36,3.25,29.937041,-81.732588
Sawmill Disc Golf Course,Ocala,Florida,United States,34482,20,4,29.244387,-82.275029
Showmen's Disc Golf Course,Riverview,Florida,United States,33578,18,0,27.862200,-82.350044
Silent Lake Disc Golf Course,Deerfield Beach,Florida,United States,33442,18,0,26.309175,-80.149813
South County Regional Park,Punta Gorda,Florida,United States,33950,18,0,26.902989,-82.046244
South Glencoe Disc Golf Course,New Smyrna Beach,Florida,United States,32168,18,0,28.963773,-81.029413
Springfield Disc Golf Course at Klutho Park,Jacksonville,Florida,United States,32206,18,5,30.350191,-81.638776
Sunset Disc Golf Course,Gulf Breeze,Florida,United States,32561,18,2.666665,30.347061,-87.113185
Sunset Ridge Disc Golf Course,Hudson,Florida,United States,34667,18,4,28.391424,-82.662659
Taylor Park Disc Golf Course,Largo,Florida,United States,33755,18,4.42857,27.979914,-82.780506
The Bear at Compass Lake,Alford,Florida,United States,32420,18,0,30.632365,-85.384570
The Jet Stream Disc Golf Course at Snyder Park,Fort Lauderdale,Florida,United States,33315,18,0,26.087015,-80.152994
The LakeHawk at Lake Sumter State College,Leesburg,Florida,United States,34788,18,4,28.895617,-81.808248
The Magnolia Disc Golf Course,Live Oak,Florida,United States,32060,18,5,30.274413,-83.036329
The Monster at Majette Disc Golf Course,Panama City,Florida,United States,32404,18,0,30.189031,-85.506785
Tocobaga Disc Golf Course,St. Petersburg,Florida,United States,33711,18,4,27.738611,-82.687520
Tom Brown Park,Tallahassee,Florida,United States,32311,24,4.5,30.390100,-84.180808
Tortoise Run Disc Golf Course,North Fort Myers,Florida,United States,33903,18,3,26.679968,-81.906630
Tradewinds Park,Ft. Lauderdale,Florida,United States,33073,18,4.6,26.298240,-80.181415
Tradewoods DIsc Golf Course,Coconut Creek,Florida,United States,33066,18,0,26.252615,-80.170374
Trinity Baptist College - Red,Jacksonville,Florida,United States,32221,18,3,30.256279,-81.853581
Trinity Baptist College - White,Jacksonville,Florida,United States,32221,18,0,30.256279,-81.853581
Trinity College Florida,Trinity,Florida,United States,34655,18,0,28.203310,-82.619283
Tuscawilla Park,Daytona Beach,Florida,United States,32114,18,4,29.192394,-81.046774
University of West Florida,Pensacola,Florida,United States,32514,18,0,30.531268,-87.221604
USF Riverfront Park,Tampa,Florida,United States,33617,18,4.5,28.035792,-82.391538
West Delray Regional Park,Delray Beach,Florida,United States,33446,18,4,26.450443,-80.186185
Whispering Pines Park,Inverness,Florida,United States,34453,27,2,28.873782,-82.335157
Wickham Park,Melbourne,Florida,United States,32935,22,4,28.145509,-80.649958
Youth Park Disc Golf,Pinellas Park,Florida,United States,33781,18,3.333335,27.838362,-82.714996
Alexander Park,Lawrenceville,Georgia,United States,30044,18,4.25,33.922046,-84.065671
Apple Mountain,Clarkesville,Georgia,United States,30523,18,0,34.716543,-83.552878
Boundary Waters - One,Douglasville,Georgia,United States,30135,18,0,33.670520,-84.734280
Boundary Waters - Two,Douglasville,Georgia,United States,30135,18,0,33.670520,-84.734280
Brickyard Plantation Disc Golf Course,Americus,Georgia,United States,31709,18,0,32.064806,-84.123242
Bulloch Disc Golf Course - Main,Statesboro,Georgia,United States,30461,18,0,32.511828,-81.718844
Camp Woodmont,Cloudland,Georgia,United States,30731,18,2,34.587768,-85.477364
Central Baptist Church,Americus,Georgia,United States,31709,18,0,32.064806,-84.123242
Central Park Disc Golf Course,Cumming,Georgia,United States,30040,18,4,34.210349,-84.187794
Chattahoochee Pointe Disc Golf Course,Suwanee,Georgia,United States,30024,18,0,34.062971,-84.090770
Claystone Park,Macon,Georgia,United States,31220,18,3.4,32.872019,-83.809688
Cloudland Canyon State Park,Rising Fawn,Georgia,United States,30738,18,3.666665,34.796552,-85.480936
Crow's Lake,Jefferson,Georgia,United States,30549,18,0,34.107990,-83.577448
Deer Lick Park,Douglasville,Georgia,United States,30135,18,3.5,33.670520,-84.734280
Depot Disc Golf Course,Sandersville,Georgia,United States,31082,18,0,32.996417,-82.903117
Dog River,Douglasville,Georgia,United States,30135,18,0,33.670520,-84.734280
Dupree Park,Woodstock,Georgia,United States,30188,18,0,34.123528,-84.457649
East Georgia College Disc Golf Course,Swainsboro,Georgia,United States,30401,18,4,32.599617,-82.352575
East Roswell Park,Roswell,Georgia,United States,30076,18,3.8,34.028483,-84.311423
Etowah Disc Golf Course,Cartersville,Georgia,United States,30121,18,4.5,34.209221,-84.778006
Fairways of Canton,Canton,Georgia,United States,30114,20,0,34.247838,-84.524468
Flat Rock Park Disc Golf Course,Columbus,Georgia,United States,31909,18,4,32.548807,-84.924106
Fort Benning Disc Golf Course,Fort Benning,Georgia,United States,31905,18,5,32.378795,-84.906850
Fort Gordon Marine/Navy Disc Golf Course,Fort Gordon,Georgia,United States,30905,20,0,33.415160,-82.142573
Fort Yargo State Park,Winder,Georgia,United States,30680,18,3,33.996105,-83.700168
Freedom Park,Valdosta,Georgia,United States,31605,24,4,30.929823,-83.223032
Frog Rock Park,Austell,Georgia,United States,30106,18,3,33.839010,-84.628247
Fulwood Disc Golf Course,Tifton,Georgia,United States,31794,18,0,31.445884,-83.452678
GA Veterans State Park,Cordele,Georgia,United States,31015,18,1,31.935000,-83.774945
Green Valley Disc Golf Course,Griffin,Georgia,United States,30224,18,0,33.204493,-84.239727
Gum Branch Park Course at Camden Disc Golf Park,Kingsland,Georgia,United States,31548,18,0,30.796163,-81.698233
Heritage Point Disc Golf,Dalton,Georgia,United States,30720,18,5,34.733644,-85.000824
Herman C. Michael Park,Bishop,Georgia,United States,30621,18,3.333335,33.791462,-83.492132
Hobbs Farm Park,Carrollton,Georgia,United States,30116,18,5,33.540590,-85.003082
Honey Creek Disc Golf Course,Waverly,Georgia,United States,31565,18,0,31.066705,-81.632529
Hunter Memorial Park,Douglasville,Georgia,United States,30134,18,0,33.777518,-84.781392
Indian Creek Park Disc Golf Course,Rutledge,Georgia,United States,30663,18,3,33.615822,-83.600873
J.P. Moseley Park,Stockbridge,Georgia,United States,30281,27,4.5,33.567898,-84.193388
Jim Warner Memorial Disc Golf Course,Appling,Georgia,United States,30802,18,0,33.601364,-82.299939
Joshua W. Franklin Disc Golf Course,Albany,Georgia,United States,31701,18,4.5,31.552695,-84.159214
Lake Meriwether Park,Woodbury,Georgia,United States,30218,18,0,33.129318,-84.587178
Lake Russell State Park,Elberton,Georgia,United States,30635,27,5,34.105769,-82.793148
Legacy Park Disc Golf Course,Kennesaw,Georgia,United States,30144,18,0,34.036864,-84.591009
Lenora Park,Snellville,Georgia,United States,30078,18,2.5,33.861019,-84.017993
Little Mulberry Park,Dacula,Georgia,United States,30019,18,5,33.975610,-83.883747
Log Cabin Course,Mt. Berry,Georgia,United States,30149,18,3,34.309754,-85.226015
Lost Woods at Pooler Recreation Complex,Pooler,Georgia,United States,31322,18,4,32.109885,-81.255465
MacIntyre Park Disc Golf Course - Recreational 18,Thomasville,Georgia,United States,31792,18,0,30.770798,-84.043704
Mathews Park,Monroe,Georgia,United States,30655,18,0,33.781688,-83.696095
McCurry Park,Fayetteville,Georgia,United States,30215,18,4,33.391613,-84.456432
McWilliams Park,Elberton,Georgia,United States,30635,18,0,34.105769,-82.793148
Meeks Park,Blairsville,Georgia,United States,30512,18,4.333335,34.859530,-83.960571
Mountain Cove Farms Resort,Chickamauga,Georgia,United States,30707,18,4,34.771941,-85.359193
Myrtle Ridge Disc Golf Course,Milledgeville,Georgia,United States,31061,18,4.5,33.077282,-83.246171
North Georgia Canopy Tours,Lula,Georgia,United States,30554,18,5,34.398083,-83.661982
North GeorgiaTechnical College Disc Golf Course,Clarkesville,Georgia,United States,30523,18,3,34.716543,-83.552878
North Landing,Marietta,Georgia,United States,30066,18,4,34.032388,-84.505154
Oregon Park,Marietta,Georgia,United States,30064,18,4,33.940455,-84.609708
Patriots Park Disc Golf Course,Evans,Georgia,United States,30809,18,4,33.556030,-82.170395
Pendleton King Park,Augusta,Georgia,United States,30904,18,4.25,33.478289,-82.014102
Perkerson Park,Atlanta,Georgia,United States,30310,18,3.6,33.726586,-84.425995
Rosewood-Dekalb at Redan Park,Lithonia,Georgia,United States,30058,18,2.75,33.740330,-84.108844
Rozar Park Disc Golf Course,Perry,Georgia,United States,31069,18,0,32.440068,-83.748603
Sandy Creek Park,Athens,Georgia,United States,30607,23,4,34.017305,-83.447551
Sequoyah Park,Canton,Georgia,United States,30115,18,3.2,34.204092,-84.400462
Shannon Disc Golf Course,Rome,Georgia,United States,30161,18,0,34.242301,-85.171371
Sherwood Christian Academy,Albany,Georgia,United States,31721,18,0,31.525260,-84.301465
Shorter University Disc Golf Course,Rome,Georgia,United States,30165,18,0,34.302923,-85.269103
Steady Ed Headrick Memorial Disc Golf Course,Appling,Georgia,United States,30802,18,5,33.601364,-82.299939
Stephens County/Rose Lane Disc Golf Course,Toccoa,Georgia,United States,30577,18,4,34.552419,-83.325929
Sumter County Parks and Rec - 19th Green,Americus,Georgia,United States,31719,18,0,32.090302,-84.310735
Suwanee Creek Disc Golf Course,Suwanee,Georgia,United States,30024,18,0,34.062971,-84.090770
The Compound,Griffin,Georgia,United States,30223,18,0,33.288801,-84.279923
The Don Shannon Disc Golf Course at Dundee Lake,Griffin,Georgia,United States,30223,18,0,33.288801,-84.279923
The Monty,Monticello,Georgia,United States,31064,18,3,33.286297,-83.702346
The Pasture Disc Golf Course,Tunnel Hill,Georgia,United States,30755,18,0,34.868030,-85.042750
The Players Course at Lake Olmstead,Augusta,Georgia,United States,30904,18,4,33.478289,-82.014102
The Tracks at McDonough,McDonough,Georgia,United States,30253,18,0,33.448926,-84.183570
Tom Triplett Disc Golf Course,Pooler,Georgia,United States,31322,18,4.75,32.109885,-81.255465
Veterans Disc Golf at Sweetwater Park,Thomson,Georgia,United States,30824,18,5,33.512953,-82.514855
Westside Disc Golf Course,Rocky Face,Georgia,United States,30740,18,5,34.757276,-85.072036
White Oak Park,Dallas,Georgia,United States,30157,18,2.5,33.884708,-84.871928
Wills Park,Alpharetta,Georgia,United States,30004,18,3,34.145614,-84.291894
WinShape Disc Golf Course,Mt. Berry,Georgia,United States,30149,18,3,34.309754,-85.226015
WR Jackson Memorial Disc Golf Course,Appling,Georgia,United States,30802,18,5,33.601364,-82.299939
Wyomia Tyus Olympic Park,Griffin,Georgia,United States,30223,18,5,33.288801,-84.279923
Yahoola Creek Park,Dahlonega,Georgia,United States,30533,18,4,34.563560,-84.020072
Yellow River Disc Golf Course,Porterdale,Georgia,United States,30070,18,0,33.574432,-83.894702
Dexter's Alley,Honolulu,Hawaii,United States,96818,18,0,21.343331,-157.941721
Gargoyles Garden Disc Golf Course,Mountain View,Hawaii,United States,96771,18,5,19.524215,-155.123040
Kahului Community Center Park,Kahului,Hawaii,United States,96732,18,0,20.883783,-156.462641
MacKenzie State Park,Pahoa,Hawaii,United States,96778,18,4,19.438940,-155.028176
Princeville Mauka Disc Golf Course,Princeville,Hawaii,United States,96722,18,5,22.188349,-159.460872
Ann Morrison Park,Boise,Idaho,United States,83706,21,3.666665,43.591442,-116.194224
Baldfoot Disc Golf Course,Sandpoint,Idaho,United States,83864,18,4,48.476674,-116.514487
Bear Basin Disc Golf Course,McCall,Idaho,United States,83638,18,3,45.067183,-115.965680
Bengal Ridge at ISU,Pocatello,Idaho,United States,83201,18,3.75,42.904916,-112.380093
Bogus Basin Disc Golf at the Pioneer,Boise,Idaho,United States,83629,18,5,43.911871,-116.130418
Caliber Disc Golf Course,Sandpoint,Idaho,United States,83864,18,5,48.476674,-116.514487
Cascade Sports Park,Cascade,Idaho,United States,83611,20,0,44.727247,-115.368064
College of Eastern Idaho,Idaho Falls,Idaho,United States,83404,18,0,43.421905,-112.011535
College of Southern Idaho,Twin Falls,Idaho,United States,83301,18,3.4,42.400555,-114.524876
Corbin Park,Post Falls,Idaho,United States,83854,18,4,47.719340,-116.967308
Eagle Island State Park,Eagle,Idaho,United States,83616,19,3,43.775559,-116.394918
Farragut State Park - A.W.O.L.,Athol,Idaho,United States,83801,18,4,47.936835,-116.666177
Farragut State Park - Cutthroat,Athol,Idaho,United States,83801,18,0,47.936835,-116.666177
Farragut State Park - Little Black Bear,Athol,Idaho,United States,83801,18,4,47.936835,-116.666177
Farragut State Park - Northstar,Athol,Idaho,United States,83801,18,5,47.936835,-116.666177
Farragut State Park - Wreckreator,Athol,Idaho,United States,83801,18,5,47.936835,-116.666177
Freeman Park Disc Golf Course,Idaho Falls,Idaho,United States,83402,18,5,43.534886,-112.174467
Golf Course,Salmon,Idaho,United States,83467,18,0,44.979814,-113.896277
Jack Crawford Memorial Disc Golf Course,Coeur d'Alene,Idaho,United States,83814,18,0,47.685687,-116.627768
Kuna Disc Golf Course,Kuna,Idaho,United States,83634,18,0,43.455641,-116.328540
Lake Walcott State Park,Rupert,Idaho,United States,83350,21,5,42.694326,-113.579982
Lions Park Disc Golf Course,Grangeville,Idaho,United States,83530,18,0,45.919925,-116.084203
Lydle Gulch - Blue,Boise,Idaho,United States,83716,20,0,43.546083,-115.944468
Lydle Gulch - Gold,Boise,Idaho,United States,83716,20,0,43.546083,-115.944468
Magic Mountain Disc Golf Course,Hansen,Idaho,United States,83334,18,0,42.444460,-114.292089
Mallard Park Disc Golf Course,Caldwell,Idaho,United States,83605,18,4,43.661908,-116.656290
Massacre Rocks State Park - Long,American Falls,Idaho,United States,83211,18,4,42.701149,-113.028458
New Plymouth Disc Golf Course,New Plymouth,Idaho,United States,83655,18,1,43.951249,-116.788488
Nubian Palace Disc Golf Course,Sandpoint,Idaho,United States,83864,18,0,48.476674,-116.514487
Optimist Park Disc Golf Course,Mountain Home,Idaho,United States,83647,18,2,43.400748,-115.522903
Panhandle Kiwanis Disc Golf Course at Cherry Hill,Coeur d'Alene,Idaho,United States,83814,18,3,47.685687,-116.627768
Pocatello Sunrise Lions Club Disc Golf Course - North,Pocatello,Idaho,United States,83204,18,0,42.856338,-112.629866
Pocatello Sunrise Lions Club Disc Golf Course - South,Pocatello,Idaho,United States,83204,18,0,42.856338,-112.629866
Pomerelle Mountain Disc Golf Course,Albion,Idaho,United States,83342,18,0,42.177466,-113.255097
Rock Creek Park,Twin Falls,Idaho,United States,83301,18,4,42.400555,-114.524876
Schweitzer Mountain Resort,Sandpoint,Idaho,United States,83864,18,0,48.476674,-116.514487
Sister City Disc Golf Course,Pocatello,Idaho,United States,83202,18,2,42.925511,-112.182742
Smelterville Drive-in,Smelterville,Idaho,United States,83854,18,0,47.719340,-116.967308
Soda Springs Disc Golf Course at Art Kelly Park,Soda Springs,Idaho,United States,83276,18,0,42.747939,-111.508511
Tamarack Resort,Donnelly,Idaho,United States,83615,18,0,44.720241,-116.054858
Tauber Angus Farm Disc Golf Course,Sandpoint,Idaho,United States,83864,18,0,48.476674,-116.514487
The Killer Course at Discovery Hill,Salmon,Idaho,United States,83467,18,0,44.979814,-113.896277
Three Island Crossing State Park,Glenns Ferry,Idaho,United States,83623,18,4,43.082032,-115.392631
50 Acre Park,Evergreen,Illinois,United States,60805,18,3,41.722001,-87.702446
Anna City Park,Anna,Illinois,United States,62906,18,0,37.462109,-89.172530
Anna Page Park - East,Rockford,Illinois,United States,61101,18,4.5,42.346079,-89.146087
Anna Page Park - South,Rockford,Illinois,United States,61101,18,4,42.346079,-89.146087
Anna Page Park - West,Rockford,Illinois,United States,61103,18,4,42.340261,-89.086492
Baker Lake Park Disc Golf Course,Peru,Illinois,United States,61354,18,4,41.327928,-89.143248
Baker Park,Kewanee,Illinois,United States,61443,18,4,41.263671,-89.944897
Beardstown Disc Golf Course,Beardstown,Illinois,United States,62618,18,0,39.982598,-90.402049
Bicentennial Park,Belleville,Illinois,United States,62226,18,4,38.535162,-89.999556
Big Creek Park,Canton,Illinois,United States,61520,18,3,40.539026,-90.023221
Black Bear Park,Hoffman Estates,Illinois,United States,60192,18,3.81818,42.063272,-88.203662
Bob Mays Park,Quincy,Illinois,United States,62301,18,0,39.931138,-91.385695
Bow Lake Golf Course,Barry,Illinois,United States,62312,18,0,39.707290,-91.024194
Bradley Park,Peoria,Illinois,United States,61606,18,3.5,40.699812,-89.611490
Camden Park 1,Milan,Illinois,United States,61264,18,4.6,41.402799,-90.595864
Camden Park 2,Milan,Illinois,United States,61264,18,5,41.402799,-90.595864
Clinton Hills Disc Golf Course,Swansea,Illinois,United States,62226,18,0,38.535162,-89.999556
Community Park,Channahon,Illinois,United States,60410,18,4.5,41.423643,-88.201754
Cordova Park,Cordova,Illinois,United States,61242,18,4,41.708009,-90.285148
Dallas City Upshot Disc Golf Course,Dallas City,Illinois,United States,62330,18,3,40.571437,-91.125784
Dodds Park Disc Golf Course,Champaign,Illinois,United States,61821,18,4,40.109646,-88.274903
Duncan Park,Springfield,Illinois,United States,62702,18,3.666665,39.824137,-89.641940
Eagle Point Disc Golf Course,Saint Elmo,Illinois,United States,62458,18,1,39.024780,-88.851563
Eagle Ridge Park at Civic Center,Oswego,Illinois,United States,60543,18,4.555555,41.664136,-88.317818
Effingham Disc Golf Course,Effingham,Illinois,United States,62401,18,4,39.118722,-88.562385
Everwood Disc Golf Course,Macomb,Illinois,United States,61455,18,0,40.440468,-90.638016
Fairfield Park,Round Lake,Illinois,United States,60073,18,3.4,42.348824,-88.109581
Farmington Park Disc Golf Course,Farmington,Illinois,United States,61531,18,0,40.682505,-90.036794
Fel-Pro RRR Disc Golf Course,Cary,Illinois,United States,60013,18,3.2,42.223439,-88.235506
Flora Rotary Disc Golf at Charley Brown Park,Flora,Illinois,United States,62839,18,5,38.665702,-88.501238
Forrest Park,Bloomington,Illinois,United States,61701,18,4,40.476769,-88.992994
Forsyth Park Disc Golf Course,Forsyth,Illinois,United States,62535,18,4.666665,39.924871,-88.968976
Fort Massac State Park Disc Golf Course,Metropolis,Illinois,United States,62960,18,0,37.225299,-88.709403
Foundation Park Disc Golf Course - Champ 18,Centralia,Illinois,United States,62801,18,5,38.512863,-89.141837
Greenville College Disc Golf Course,Greenville,Illinois,United States,62246,18,0,38.890366,-89.427577
Hickory Winds Disc Golf Course,Carbondale,Illinois,United States,62901,18,0,37.739004,-89.209109
Highland (Pilcher) Park,Joliet,Illinois,United States,60432,18,4.5,41.541747,-88.034728
Highland Community College,Freeport,Illinois,United States,61032,18,0,42.318004,-89.636784
Hornet's Nest Disc Golf Course,Mt. Sterling,Illinois,United States,62353,18,0,39.967967,-90.756345
Illinois Central College Disc Golf Course,East Peoria,Illinois,United States,61571,18,0,40.704146,-89.417889
Indian Oaks,Marengo,Illinois,United States,60152,18,3.5,42.237802,-88.625501
Ingersoll Memorial Disc Golf Course,Rockford,Illinois,United States,61102,18,0,42.228769,-89.162524
Jericho Lake,Aurora,Illinois,United States,60506,18,4.285715,41.765703,-88.363853
Jo Clark Siegert Disc Golf Course,Pana,Illinois,United States,62557,18,0,39.396869,-89.104534
Joshua Park,Rock Falls,Illinois,United States,61071,18,2,41.724673,-89.698867
Katherine Legge Memorial Park,Hinsdale,Illinois,United States,60521,18,5,41.800683,-87.928172
Kennel Lake,Morton,Illinois,United States,61550,18,0,40.610249,-89.441854
Kiwanis Park Disc Golf Course,Galesburg,Illinois,United States,61401,18,0,40.944205,-90.385824
Kiwanis/Rotary Park,Olney,Illinois,United States,62450,18,0,38.713182,-88.089183
Knoch Knolls Park,Naperville,Illinois,United States,60565,18,2.666665,41.730729,-88.124336
Konarcik Park,Waterloo,Illinois,United States,62298,18,0,38.310793,-90.159394
Krape Park,Freeport,Illinois,United States,61032,18,4.5,42.318004,-89.636784
Kress Creek Farms Disc Golf Course,West Chicago,Illinois,United States,60185,18,3.333335,41.896691,-88.211014
Kutter Park,Cottage Hills,Illinois,United States,62018,18,3,38.907779,-90.081320
La Vista Park,Godfrey,Illinois,United States,62035,18,5,38.962875,-90.242457
Lake Eureka Disc Golf Course,Eureka,Illinois,United States,61530,18,4.2,40.714296,-89.260092
LaMoine Christian Service Camp,Tennessee,Illinois,United States,62374,18,0,40.408924,-90.912064
Ledgestone Open,Eureka,Illinois,United States,61530,18,0,40.714296,-89.260092
Lincoln Park - North,Springfield,Illinois,United States,62702,18,3.666665,39.824137,-89.641940
Lincoln Park - South,Springfield,Illinois,United States,62702,18,4,39.824137,-89.641940
Lippold Park,Crystal Lake,Illinois,United States,60014,18,3.57143,42.232414,-88.327449
Longview Park,Rock Island,Illinois,United States,61201,18,4,41.477559,-90.575628
Madison Meadow Park,Lombard,Illinois,United States,60148,19,4.18182,41.873571,-88.020766
Margreth Riemer Reservoir,Palatine,Illinois,United States,60067,18,3.875,42.106323,-88.064337
Marilla Park Disc Golf,Streator,Illinois,United States,61364,18,3,41.127938,-88.841173
Maxwell Park Disc Golf Course,Normal,Illinois,United States,61761,18,4.333335,40.529016,-88.958935
McNaughton Park,Pekin,Illinois,United States,61554,18,4,40.539343,-89.618320
Megiddo Disc Golf Course,Morton,Illinois,United States,61550,18,4.25,40.610249,-89.441854
Moorman Park,Quincy,Illinois,United States,62305,18,3,39.928189,-91.343938
Nelson Park Disc Golf Course,Decatur,Illinois,United States,62523,18,4,39.844096,-88.952216
Nick Saelens Memorial Park,Durand,Illinois,United States,61024,18,0,42.436415,-89.297114
Nims Park,Rock Falls,Illinois,United States,61071,18,2,41.724673,-89.698867
North Sandusky Disc Golf Course,Sesser,Illinois,United States,62884,18,4,38.083366,-89.056171
Northwood Park,Morton,Illinois,United States,61550,18,4.6,40.610249,-89.441854
Patriot's Park,Greenville,Illinois,United States,62246,18,3,38.890366,-89.427577
Pharoah's Way Disc Golf Course,Marion,Illinois,United States,62959,18,0,37.718218,-88.910435
Pine Hills Golf Club,Ottawa,Illinois,United States,61350,18,0,41.372095,-88.865127
Pioneer Park,Kirkland,Illinois,United States,60146,18,3.666665,42.099982,-88.874061
Pittsfield Lake Disc Golf Course,Griggsville,Illinois,United States,62340,18,4,39.734770,-90.728245
PJ Irvin Disc Golf Course,Bloomington,Illinois,United States,61701,18,5,40.476769,-88.992994
Prospect Park,Moline,Illinois,United States,61265,18,4,41.482333,-90.493407
Richmond Hill Park,Geneseo,Illinois,United States,61254,18,3.666665,41.467230,-90.149630
Riverview Disc Golf Course,Pontiac,Illinois,United States,61764,18,0,40.882442,-88.628136
Rock Spring Park,Alton,Illinois,United States,62002,18,3.833335,38.938538,-90.125303
Rockford University Disc Golf Course,Rockford,Illinois,United States,61108,21,4,42.257371,-89.002129
Rolling Knolls Disc Golf Course,Elgin,Illinois,United States,60120,18,4.333335,42.034492,-88.238396
Round Barn,Manhattan,Illinois,United States,60442,18,4,41.392698,-87.963468
Sergeant Means Park,Olympia Fields,Illinois,United States,60461,20,3.666665,41.522116,-87.700733
Shady Oaks Park,Streamwood,Illinois,United States,60107,18,4.25,42.020586,-88.177771
Shorewood Park,Shorewood,Illinois,United States,60404,18,4,41.514026,-88.223228
Silver Lake Park,Highland,Illinois,United States,62249,18,2.5,38.755322,-89.667366
Sinnissippi Park,Sterling,Illinois,United States,61081,24,4.166665,41.833205,-89.737983
Squaw Creek Gold DGC,Round Lake,Illinois,United States,60073,19,4,42.348824,-88.109581
Summit Park,Summit,Illinois,United States,60501,18,2.666665,41.780221,-87.823244
Sunrise Park,Bartlett,Illinois,United States,60103,18,3.77778,41.980546,-88.204761
Sunset Hills Disc Golf Course,Pekin,Illinois,United States,61554,18,5,40.539343,-89.618320
The Canyons at Dellwood Park,Lockport,Illinois,United States,60441,27,4.714285,41.592639,-88.050043
The Links at Wheeler Park,Geneva,Illinois,United States,60134,18,4.2,41.878343,-88.342066
The Meadows Disc Golf Park,Tinley Park,Illinois,United States,60477,18,2,41.572143,-87.789250
The Oaks,Mokena,Illinois,United States,60448,27,4.69231,41.537785,-87.892451
Tim Osmond Sports Complex,Antioch,Illinois,United States,60002,18,3,42.471741,-88.084493
Trinity Links,Joliet (Lockport),Illinois,United States,60441,18,4.8,41.592639,-88.050043
University of Illinois - Springfield Disc Golf Course,Springfield,Illinois,United States,62703,18,3,39.762432,-89.629838
Wabash Run,Grayville,Illinois,United States,62844,18,0,38.262729,-88.043467
Walnut Disc Golf Course,Walnut,Illinois,United States,61376,18,4,41.545347,-89.613262
Walnut Hollow - Long,Cary,Illinois,United States,60013,18,5,42.223439,-88.235506
Washington Park,Washington,Illinois,United States,61571,18,2.75,40.704146,-89.417889
West Main Park,Batavia,Illinois,United States,60510,18,2.5,41.841141,-88.306602
West Park,Joliet,Illinois,United States,60436,18,4.75,41.486888,-88.129295
Wildcat Springs,Hamilton,Illinois,United States,62341,18,4,40.426611,-91.295738
Wildlife Prairie Park,Hanna City,Illinois,United States,61536,18,0,40.689425,-89.793782
Woodland Park,Collinsville,Illinois,United States,62234,18,3.2,38.683215,-89.982058
Woodlands,Rockton,Illinois,United States,61072,18,3,42.442353,-89.138490
Akron Community Disc Golf Course,Akron,Indiana,United States,46910,18,0,41.043832,-86.036308
Altstadt Acres,Huntingburg,Indiana,United States,47542,18,0,38.296585,-86.966599
Avon Town Hall Disc Golf Course,Avon,Indiana,United States,46123,18,3.4,39.764395,-86.403457
Big Walnut Sports Park,Greencastle,Indiana,United States,46135,19,1.666665,39.654571,-86.893996
Blue Heron,Franklin,Indiana,United States,46131,18,3,39.473489,-86.043592
Blueberry Hill Estate and Day Spa,Paoli,Indiana,United States,47454,18,0,38.510025,-86.451821
Boondocks Farms,Knightstown,Indiana,United States,46148,18,4.666665,39.811400,-85.512466
Boylan Acres,Monrovia,Indiana,United States,46158,18,0,39.579356,-86.373602
Brookside Park,Indianapolis,Indiana,United States,46201,18,3,39.774142,-86.109200
Brown County Country Club,Nashville,Indiana,United States,47448,24,4.5,39.179530,-86.235511
Buffalo Trace Park,Palmyra,Indiana,United States,47164,18,3,38.413092,-86.095786
Camp Cullom Youth Camp Disc Golf Course,Frankfort,Indiana,United States,46057,24,5,40.336265,-86.377328
Cedar Grove Disc Golf Course,Sunman,Indiana,United States,47041,18,0,39.234052,-85.083768
Ceraland Disc Golf Course,Columbus,Indiana,United States,47203,18,4,39.230403,-85.832160
Clear Creek Park,Richmond,Indiana,United States,47374,18,0,39.832079,-84.889699
Commons Park Disc Golf Course,Angola,Indiana,United States,46703,18,4,41.649589,-85.006550
Countryside Park,Portage,Indiana,United States,46368,21,0,41.590820,-87.180707
County Farm Disc Golf Course,Aurora,Indiana,United States,47001,18,0,39.072665,-84.965538
Coyote Trace,Nineveh,Indiana,United States,46131,18,0,39.473489,-86.043592
Crestmont,Bloomington,Indiana,United States,47404,18,3,39.219531,-86.591196
Cupertino's Course,St. Meinrad,Indiana,United States,47577,18,0,38.152526,-86.808938
David Imbrock Memorial Disc Golf at Bixler Lake,Kendallville,Indiana,United States,46755,18,0,41.449220,-85.275147
Deer Run Disc Golf Course,Nashville,Indiana,United States,47448,18,4,39.179530,-86.235511
Delt Church Park,Wolcottville,Indiana,United States,46795,18,0,41.553974,-85.330905
Deming Park - North,Terre Haute,Indiana,United States,47803,18,4,39.466092,-87.307322
Deming Park - South,Terre Haute,Indiana,United States,47803,18,0,39.466092,-87.307322
DISC at Fall Creek,Indianapolis,Indiana,United States,46256,18,4,39.908383,-86.013138
Dr. James A. Dillon Park,Noblesville,Indiana,United States,46060,18,4,40.064624,-85.915911
Dubois County Park Disc Golf Course,Huntingburg,Indiana,United States,47542,18,5,38.296585,-86.966599
Eagle Valley at USI,Evansville,Indiana,United States,47712,18,0,37.926457,-87.665531
East Swinney Park,Fort Wayne,Indiana,United States,46808,18,3,41.097775,-85.177021
Elwood Disc Golf Course,Elwood,Indiana,United States,46036,18,4,40.295166,-85.831108
Ferrettie Baugo Creek County Park,Osceola,Indiana,United States,46561,18,2.5,41.663978,-86.075352
Fly By Faith,Lafayette,Indiana,United States,47905,18,4,40.420015,-86.766044
Forest Park Disc Golf Course,Brazil,Indiana,United States,47834,18,3,39.525549,-87.121971
Forsythe Park,Whiting,Indiana,United States,46394,18,0,41.677695,-87.489493
France Park,Logansport,Indiana,United States,46947,18,5,40.759919,-86.376113
Frank Merry Park,Dunkirk,Indiana,United States,47336,18,0,40.386666,-85.210360
Freedom Park,Lowell,Indiana,United States,46356,18,0,41.256618,-87.422184
George Washington Park,Indianapolis,Indiana,United States,46218,18,4,39.807262,-86.099746
George Wilson Park,Mishawaka,Indiana,United States,46544,18,4,41.615082,-86.147820
Goodrich Park Disc Golf Course,Winchester,Indiana,United States,47394,27,0,40.167974,-84.987308
Grassy Creek Disc Golf Course,New Whiteland,Indiana,United States,46184,18,0,39.561936,-86.072222
Harter Park Disc Golf Course,Union City,Indiana,United States,47390,24,0,40.205668,-84.846428
Haubstadt Johnson Township Disc Golf Course,Haubstadt,Indiana,United States,47639,18,0,38.176143,-87.572939
Hazel Landing Park,Carmel,Indiana,United States,46280,18,4.5,39.932373,-86.131280
Hidden Lake Disc Golf Course,Merrillville,Indiana,United States,46410,18,0,41.480207,-87.333065
Highland Park,Kokomo,Indiana,United States,46902,18,2,40.437275,-86.094553
Honey Bear Hollow Campgrounds,Peru,Indiana,United States,46970,18,4,40.760125,-86.061471
Indy Horizon Disc Golf Course,Lawrence,Indiana,United States,46236,18,0,39.895722,-85.967501
Johnson Township Community Park,Haubstadt,Indiana,United States,47639,18,0,38.176143,-87.572939
Kankakee Highlands,North Judson,Indiana,United States,46366,18,4.5,41.215648,-86.768059
Karst Farm Park,Bloomington,Indiana,United States,47401,18,2,39.102306,-86.442835
Lapping Memorial Park,Clarksville,Indiana,United States,47129,18,0,38.313141,-85.768453
Lemon Lake County Park - Blue,Crown Point,Indiana,United States,46307,18,4.25,41.403937,-87.326039
Lemon Lake County Park - Gold,Crown Point,Indiana,United States,46307,18,5,41.403937,-87.326039
Lemon Lake County Park - Red,Crown Point,Indiana,United States,46307,18,5,41.403937,-87.326039
Lemon Lake County Park - Silver,Crown Point,Indiana,United States,46307,18,5,41.403937,-87.326039
Lemon Lake County Park - White,Crown Point,Indiana,United States,46307,18,5,41.403937,-87.326039
Lions Club Park,Yorktown,Indiana,United States,47396,24,3,40.189183,-85.517178
Living Waters Disc Golf Course at New Creations,Richmond,Indiana,United States,47374,18,0,39.832079,-84.889699
Longley Park,Lebanon,Indiana,United States,46052,18,3.2,40.042907,-86.456535
Maconaquah Park,Peru,Indiana,United States,46970,18,3,40.760125,-86.061471
Mastodon Disc Golf Course at Purdue,Fort Wayne,Indiana,United States,46805,18,0,41.100110,-85.117711
Matt Lovasko Disc Golf Course at Riverside Park,Hammond,Indiana,United States,46324,18,4,41.583084,-87.501585
Matter Park Disc Golf,Marion,Indiana,United States,46952,24,0,40.599427,-85.629225
McCulloch Disc Golf Course,Muncie,Indiana,United States,47306,18,4,40.202547,-85.405132
Memorial Hills Disc Golf,Huntington,Indiana,United States,46750,18,0,40.878460,-85.496399
Mesker Park,Evansville,Indiana,United States,47710,18,4,38.025505,-87.575809
Mesker Woods,Evansville,Indiana,United States,47720,18,0,38.062897,-87.641573
Milligan Park Disc Golf Course,Crawfordsville,Indiana,United States,47933,22,4.5,40.038913,-86.896849
Mississinewa State Park,Peru,Indiana,United States,46970,24,5,40.760125,-86.061471
Moser Park,Fort Wayne (New Haven),Indiana,United States,46774,18,3.5,41.089259,-84.972549
Mt. Gilead Disc Golf Course,Mooresville,Indiana,United States,46158,18,3,39.579356,-86.373602
Murdock Park,Lafayette,Indiana,United States,47905,18,2.5,40.420015,-86.766044
New Albany Disc Golf Course,New Albany,Indiana,United States,47150,18,0,38.283506,-85.847601
Niehaus Park Disc Golf Course,Huntingburg,Indiana,United States,47542,18,4,38.296585,-86.966599
Northwest Community Park at Bethesda Baptist Church,Brownsburg,Indiana,United States,46112,18,0,39.863910,-86.382425
Northwestway Park Disc Golf Course,Indianapolis,Indiana,United States,46268,18,2,39.898613,-86.233341
Ossian Disc Golf Course,Ossian,Indiana,United States,46777,18,4,40.869136,-85.147577
Ox Bow County Park,Elkhart,Indiana,United States,46516,24,4.333335,41.676594,-85.944127
Patoka Lake State Rec Area,Birdseye,Indiana,United States,47513,18,0,38.304258,-86.714111
Prides Creek Park Disc Golf Course,Petersburg,Indiana,United States,47567,18,4,38.462700,-87.305019
Princeton Country Club,Patoka,Indiana,United States,47666,18,0,38.417797,-87.600469
Pulaski Park,Hammond,Indiana,United States,46323,18,2,41.589434,-87.453729
Purdue Northwest,Westville,Indiana,United States,46391,18,0,41.554106,-86.918985
Red Tail Ridge Disc Golf Course,Princeton,Indiana,United States,47670,18,0,38.344905,-87.584786
Rochester City Park,Rochester,Indiana,United States,46975,18,0,41.075438,-86.250139
Rockville Lake Park,Rockville,Indiana,United States,47872,18,4,39.753541,-87.153112
Rogers Lakewood Park,Valparaiso,Indiana,United States,46385,24,5,41.460058,-87.129705
Rum Village Disc Golf Course,South Bend,Indiana,United States,46613,18,3.6,41.655494,-86.258431
Sahm Park,Indianapolis,Indiana,United States,46250,18,2,39.898839,-86.058720
Sanders Memorial Disc Golf Course,Anderson,Indiana,United States,46012,18,0,40.154670,-85.619672
Seviren Lang Disc Golf Course,Georgetown,Indiana,United States,47122,18,5,38.305960,-85.984844
Shady Pines,Kokomo,Indiana,United States,46901,18,3,40.531266,-86.169537
Shoaff Park,Fort Wayne,Indiana,United States,46835,24,5,41.152980,-85.040800
Sugar Creek Campground,Crawfordsville,Indiana,United States,47933,18,0,40.038913,-86.896849
The Boonies Disc Golf Course,Akron,Indiana,United States,46910,18,0,41.043832,-86.036308
The Fun Farm,Corydon,Indiana,United States,47112,22,3,38.195517,-86.162499
The Glen Disc Golf Course,Richmond,Indiana,United States,47374,18,4,39.832079,-84.889699
The Hill at Northview Church,Carmel,Indiana,United States,46033,18,3.75,39.979283,-86.085557
The Lodge Disc Golf Course,Syracuse,Indiana,United States,46567,18,0,41.416491,-85.725422
The Preserve,Kokomo,Indiana,United States,46902,18,0,40.437275,-86.094553
The Wildcat at Markle Park,Markle,Indiana,United States,46770,18,0,40.837684,-85.324251
Tillman Park Disc Golf Course,Fort Wayne,Indiana,United States,46816,19,0,41.000785,-85.036179
Wabash City Park,Wabash,Indiana,United States,46992,18,5,40.787305,-85.826434
Washout Waters (McAllister North),Lafayette,Indiana,United States,47904,18,0,40.438632,-86.876920
Washout Woods (McAllister South),Lafayette,Indiana,United States,47904,18,0,40.438632,-86.876920
West Swinney Park,Fort Wayne,Indiana,United States,46808,18,5,41.097775,-85.177021
Woodmere Disc Golf Course,Evansville,Indiana,United States,47714,18,4,37.956614,-87.521291
Altmaier Family Park Disc Golf Course,Coralville,Iowa,United States,52241,18,5,41.699578,-91.595951
Ambrose A. Call Park,Algona,Iowa,United States,50511,18,0,43.074041,-94.219184
Beacon Hollow Disc Golf Course,Cherokee,Iowa,United States,51012,18,0,42.744137,-95.561849
Becky Zallek Disc Golf Course,Des Moines,Iowa,United States,50314,18,0,41.604964,-93.631200
Big Creek State Park,Polk City,Iowa,United States,50226,18,4,41.796243,-93.701973
Big Rock Disc Golf Course,Pella,Iowa,United States,50219,18,0,41.420905,-92.896537
Big Woods Disc Golf Course,Cedar Falls,Iowa,United States,50613,18,4,42.531380,-92.485808
Centerville Disc Golf Course,Centerville,Iowa,United States,52544,18,3.5,40.706642,-92.912272
Central College Disc Golf Course,Pella,Iowa,United States,50219,18,3,41.420905,-92.896537
Chautauqua City Park,Fairfield,Iowa,United States,52556,18,4,41.024200,-91.927545
Credit Island,Davenport,Iowa,United States,52802,18,3,41.494514,-90.637187
Dankwardt Park,Burlington,Iowa,United States,52601,18,4,40.856050,-91.129717
Deerwood Park,Evansdale,Iowa,United States,50707,18,4,42.458164,-92.260032
Devil's Glen Disc Golf Course,Bettendorf,Iowa,United States,52722,18,3,41.574300,-90.471526
Dubuque Veterans Memorial Park,Dubuque,Iowa,United States,52001,18,4.5,42.545527,-90.695841
Eagle Point Disc Golf,Clinton,Iowa,United States,52732,18,4.666665,41.891044,-90.253005
East Lake,Mount Pleasant,Iowa,United States,52641,18,4,40.994585,-91.585772
East Park,Mason City,Iowa,United States,50401,18,2,43.153169,-93.199820
Eastern Avenue Park,Davenport,Iowa,United States,52807,18,4,41.610682,-90.516851
Edmundson Park,Oskaloosa,Iowa,United States,52577,18,0,41.272983,-92.661641
Ewing Park,Des Moines,Iowa,United States,50320,18,4,41.527942,-93.567967
Fay Clark Park,Hiawatha,Iowa,United States,52233,18,2,42.046770,-91.686869
Folletts Park,Folletts,Iowa,United States,52730,18,2,41.775670,-90.335349
Forest City Disc Golf,Forest City,Iowa,United States,50436,21,4,43.266457,-93.671070
Franklin Park Disc Golf Course,Belle Plaine,Iowa,United States,52208,18,3,41.876782,-92.256910
Frontier at Rodeo Park,Fort Madison,Iowa,United States,52627,18,0,40.681141,-91.357437
Fuller Park,Muscatine,Iowa,United States,52761,18,4,41.439931,-91.064259
Gateway Hills Park (Carroll Marty Disc Golf Course),Ames,Iowa,United States,50014,18,4,42.046297,-93.694448
Graceland University,Lamoni,Iowa,United States,50140,18,0,40.645520,-93.986274
Grandview Park,Des Moines,Iowa,United States,50317,18,3,41.617463,-93.546621
Greenfield Lake City Park - Back,Greenfield,Iowa,United States,50849,18,0,41.308278,-94.386570
Greenfield Lake City Park - Front,Greenfield,Iowa,United States,50849,18,0,41.308278,-94.386570
Heritage Park,Ankeny,Iowa,United States,50021,21,3,41.724267,-93.565320
Indian Hills Community College,Ottumwa,Iowa,United States,52501,18,5,41.035705,-92.431370
Iowa Regular Baptist Camp,Ventura,Iowa,United States,50482,18,0,43.113101,-93.486404
Iowa State University (Stable Run Disc Golf Course),Ames,Iowa,United States,50010,18,4,42.030852,-93.588400
Jones Park,Cedar Rapids,Iowa,United States,52404,18,4.333335,41.923056,-91.698866
Lake Fisher Disc Golf Course,Bloomfield,Iowa,United States,52537,18,0,40.734988,-92.413618
Lake Icaria,Corning,Iowa,United States,50841,18,0,41.009072,-94.768812
Lake Iowa Disc Golf Course,Ladora,Iowa,United States,52251,18,0,41.710291,-92.192601
Lake Orient Recreation Area,Orient,Iowa,United States,50858,18,0,41.221263,-94.409669
Laker Links,Emmetsburg,Iowa,United States,50536,18,0,43.118262,-94.705481
Legion Park,Marion,Iowa,United States,52302,19,3,42.065358,-91.560548
Lewis Club Park,Colfax,Iowa,United States,50054,18,4,41.690374,-93.233338
Maytag Park,Newton,Iowa,United States,50208,18,3.5,41.711721,-93.033958
McHose Park,Boone,Iowa,United States,50036,18,3,42.085554,-93.864204
McKinley Park,Creston,Iowa,United States,50801,18,0,41.078671,-94.401822
Memorial Park,Ottumwa,Iowa,United States,52501,19,0,41.035705,-92.431370
Middle Park Disc Golf Course,Bettendorf,Iowa,United States,52722,18,4,41.574300,-90.471526
Miller Park,Sanborn,Iowa,United States,51248,18,0,43.205540,-95.657879
Miller Park - Lake Nyanza,Grinnell,Iowa,United States,50112,18,3,41.730188,-92.715452
Montezuma Disc Golf Course,Montezuma,Iowa,United States,50171,18,0,41.585852,-92.525413
Northwood Disc Golf Course,Northwood,Iowa,United States,50459,18,3,43.457425,-93.250439
Okoboji Gold Disc Golf Course at Kenue Park,Okoboji,Iowa,United States,51355,18,0,43.389404,-95.136153
Osceola Disc Golf Course,Osceola,Iowa,United States,50213,18,0,41.031685,-93.766137
Peninsula Park Disc Golf Course,Iowa City,Iowa,United States,52240,18,4,41.635728,-91.500622
Pickard Park,Indianola,Iowa,United States,50125,18,3.666665,41.335185,-93.584634
Pioneer Trail at Rodeo Park,Fort Madison,Iowa,United States,52627,18,4,40.681141,-91.357437
Rand Park,Keokuk,Iowa,United States,52632,18,4,40.431951,-91.444622
Riverview Park,Marshalltown,Iowa,United States,50158,18,0,42.049806,-92.900739
Scenic Drive at Rodeo Park,Fort Madison,Iowa,United States,52627,18,4,40.681141,-91.357437
Scott Community College Disc Golf Course,Riverdale,Iowa,United States,52722,18,0,41.574300,-90.471526
Shaver Park,Cedar Rapids,Iowa,United States,52402,18,4,42.023172,-91.659613
Sheldon Park,Humboldt,Iowa,United States,50548,18,0,42.714769,-94.225325
Southwestern College Disc Golf Course,Creston,Iowa,United States,50801,18,0,41.078671,-94.401822
Sportsman's Park,Charles City,Iowa,United States,50616,18,0,43.080601,-92.658742
Spring Park,Osage,Iowa,United States,50461,18,0,43.306168,-92.818741
Sugar Bottom Rec. Area,Solon,Iowa,United States,52333,18,4.5,41.805879,-91.492386
Sunkissed Meadows,Fort Dodge,Iowa,United States,50501,18,0,42.492334,-94.192499
Sunnyside Disc Golf,Atlantic,Iowa,United States,50022,18,5,41.414374,-94.996402
Sunrise Disc Golf Course,Bettendorf,Iowa,United States,52722,18,0,41.574300,-90.471526
Swan Lake Disc Golf Course,Carroll,Iowa,United States,51401,18,4.5,42.065661,-94.869660
The Baty Disc Golf Course,Monticello,Iowa,United States,52310,18,0,42.220372,-91.195364
The Village,Clear Lake,Iowa,United States,50428,18,4,43.136933,-93.397107
Tourist Park,Cedar Falls,Iowa,United States,50613,18,3,42.531380,-92.485808
Treasure Cove Disc Golf Course,Council Bluffs,Iowa,United States,51503,18,4,41.223220,-95.784481
Walnut Ridge Recreation Area,Des Moines (Johnston),Iowa,United States,50131,18,4,41.692120,-93.715156
Waterloo Exchange Park,Waterloo,Iowa,United States,50701,27,5,42.418259,-92.339821
West Brook Park,DeWitt,Iowa,United States,52742,18,4,41.838263,-90.519700
West Floyd Disc Golf Course,Le Mars,Iowa,United States,51031,18,0,42.798547,-96.186217
West Lake Park,Davenport,Iowa,United States,52804,24,4.666665,41.532458,-90.681249
Wildcat Bluff,Urbana,Iowa,United States,52349,21,4.5,42.173246,-92.009630
Wilder Park,Allison,Iowa,United States,50602,18,0,42.741405,-92.805745
Wildwood Park,Ottumwa,Iowa,United States,52501,18,0,41.035705,-92.431370
Airport Park Disc Golf Course,Concordia,Kansas,United States,66901,18,0,39.560035,-97.638951
Anthony Lake Disc Golf Course,Anthony,Kansas,United States,67003,18,0,37.099126,-98.073777
Baldwin City Lake,Baldwin City,Kansas,United States,66006,18,0,38.804266,-95.232670
Barclay College,Haviland,Kansas,United States,67059,18,0,37.636944,-99.097274
Big Bull Creek,Edgerton,Kansas,United States,66021,18,0,38.766280,-95.015000
Big Hill South,Cherryvale,Kansas,United States,67335,18,4.6,37.274582,-95.526745
Big Shunga Park,Topeka,Kansas,United States,66611,18,0,39.018756,-95.696387
Bloomington Disc Golf Course,Lawrence,Kansas,United States,66047,18,0,38.893051,-95.346160
Blue Valley of Kansas,Overland Park,Kansas,United States,66085,18,5,38.798768,-94.656684
Bob Mowery's Meadows at Clinton Lake State Park,Lawrence,Kansas,United States,66049,18,0,38.978096,-95.344129
Boyce Baumgardner Memorial Disc Golf Course at Swope Park,Cottonwood Falls,Kansas,United States,66845,18,0,38.298731,-96.508392
Camp Hawk,Newton,Kansas,United States,67114,24,4,38.075760,-97.289050
Carey Park,Hutchinson,Kansas,United States,67501,18,0,37.977493,-97.926452
Cedar Ridge Disc Golf Course,Bonner Springs,Kansas,United States,66012,18,0,39.066521,-94.920179
Centennial Park,Lawrence,Kansas,United States,66049,18,4,38.978096,-95.344129
Cessna West Park,Wichita,Kansas,United States,67218,18,0,37.668511,-97.280418
Chautauqua Park,Beloit,Kansas,United States,67420,18,4,39.400935,-98.085468
Cheney State Park West,Pretty Prairie,Kansas,United States,67025,18,0,37.642375,-97.784959
Cico Park,Manhattan,Kansas,United States,66503,18,0,39.265051,-96.695255
Clapp Memorial Park,Wichita,Kansas,United States,67218,18,0,37.668511,-97.280418
Clover Cliff Ranch,Elmdale,Kansas,United States,66850,18,0,38.433834,-96.744041
Cowskin Disc Golf Course,Colwich,Kansas,United States,67030,18,0,37.785616,-97.546810
Crestview Park - East,Topeka,Kansas,United States,66614,18,0,39.010366,-95.852479
Crestview Park - West,Topeka,Kansas,United States,66604,18,4,39.039022,-95.726188
Dena Dee Disc Golf Course,Coffeyville,Kansas,United States,67337,18,0,37.053665,-95.598198
Duck Creek,Wright,Kansas,United States,67882,18,0,37.804181,-99.879885
Eagle Disc Golf Course,Olpe,Kansas,United States,66865,18,0,38.223501,-96.293197
Earhart Disc Golf Course,Atchison,Kansas,United States,66002,18,0,39.538742,-95.137635
Eastminster Church Disc Golf Course,Wichita,Kansas,United States,67206,18,0,37.704071,-97.225463
El Dorado Disc Golf Course,El Dorado,Kansas,United States,67042,18,0,37.857264,-96.780718
Elmwood Park,Norton,Kansas,United States,67654,18,3,39.823962,-99.949132
Emporia Country Club,Emporia,Kansas,United States,66801,18,0,38.414215,-96.218301
Emporia Middle School,Emporia,Kansas,United States,66801,18,0,38.414215,-96.218301
Fairmont Park,Manhattan,Kansas,United States,66502,18,5,39.156299,-96.521265
Flying Bee Country Club,Valley Center,Kansas,United States,67147,18,0,37.861357,-97.312881
Forest Park Disc Golf Course,Ottawa,Kansas,United States,66067,18,0,38.623617,-95.276284
Frontier Park,Hays,Kansas,United States,67601,18,3.666665,38.876881,-99.349544
Garden City Disc Golf Course,Garden City,Kansas,United States,67846,18,1,38.034156,-100.768068
Gardner Disc Golf Course,Gardner,Kansas,United States,66030,18,0,38.815137,-94.940266
Garvin Park Disc Golf,Augusta,Kansas,United States,67010,18,0,37.663117,-96.965280
Glenwood Park,Parsons,Kansas,United States,67357,18,3.75,37.345929,-95.261617
Great Bend Disc Golf Course,Great Bend,Kansas,United States,67530,18,0,38.352059,-98.794484
Gunn Park Disc Golf Course,Fort Scott,Kansas,United States,66701,18,3.5,37.823655,-94.765014
