Name, Number of holes, Latitude, Longitude
10-3 at CB,27,38.90,-106.97
1000 Acres Ranch Disc Golf Course,18,43.43,-73.87
2022 Lucky Disc Golf Open Freeman North,18,43.51,-112.05
3 Creeks,18,39.71,-76.00
50 Acre Park,18,41.73,-87.69
501 Disc Golf,18,42.23,-72.19
The 5th Element,18,39.54,-77.11
65th Infantry Veterans Disc Golf Course,18,28.33,-81.35
Aant'iyeik Park,18,58.38,-134.74
Abendschein Park,18,42.90,-87.90
Acadiana Park - Ace Run,18,30.25,-91.99
Acadiana Park - Duzee,18,30.25,-91.99
Ace Eight Disc Golf Course at DeSales University,18,40.54,-75.38
Ace Run Ranch,18,36.64,-76.65
Acker's Acres - The Twisted,18,44.08,-69.88
Acker's Acres - The Wicked,18,44.09,-69.88
Acorn Disc Golf Course,18,45.02,-93.11
Active Heroes,19,37.98,-85.59
Adair Park,18,44.67,-123.21
Adams Hollow,18,39.93,-104.88
Addison Oaks County Park,24,42.80,-83.16
Adelaide Park,18,43.79,-88.46
The Admiral,18,30.75,-88.23
Adrian Disc Golf Course,18,43.64,-95.94
Afton Alps,18,44.85,-92.79
Aggie Greens at Hughes Stadium,18,40.56,-105.14
Aggieland Disc Golf,18,34.13,-88.00
Agnes Moffitt Park,18,29.81,-95.56
Ahoskie Creek Park,18,36.29,-77.00
Air Rider Disc Golf at Camper's Haven,18,43.77,-83.10
Airborn Disc Golf - Lynx,18,45.41,-94.03
Airborn Disc Golf - Timberwolf,18,45.41,-94.03
Airport Park Disc Golf Course,18,39.55,-97.66
Akron Community Disc Golf Course,18,41.04,-86.03
Alamosa Disc Golf Course,18,37.49,-105.89
Albert Oakland Park - Lower (Bottom),18,38.98,-92.31
Albert Oakland Park - Upper (Top),18,38.99,-92.31
Alcantra Disc Golf - Big Su,20,61.61,-149.38
Alcyon Woods,18,39.73,-75.15
Alex Clark Memorial Disc Golf Course,18,33.19,-96.65
Alexander Park,18,33.92,-84.00
Alexandria Township Park Disc Golf Course,18,40.59,-75.06
Alien's Landing,18,43.33,-83.08
All Aboard Disc Golf,18,45.25,-68.59
All-Terrain Disc Golf Course at Carolina Adventure World,18,34.49,-80.95
Allaire State Park,18,40.16,-74.13
Alma Flying Disc Golf Course,18,35.50,-94.22
Almon Park Disc Golf Course,18,45.59,-89.42
Alta Vista Disc Golf Course,18,38.66,-105.12
Alton Baker Disc Golf Course,18,44.06,-123.08
Altstadt Acres,18,38.29,-86.95
Gray Center - Alumni Disc Golf Course,18,32.75,-90.02
Amanda's Field,18,39.26,-74.74
Ambient Disc Golf Course,18,47.19,-122.51
Ambrose A. Call Park,18,43.05,-94.25
Amelia Earhart Park,18,25.89,-80.28
American Legion Mtn. Post 781 Disc Golf Course,18,41.13,-75.95
Amigo Park at Hill College,18,32.33,-97.44
Amundson Park,18,43.93,-90.84
Anderson Creek,18,35.32,-78.96
Anderson-Dean Community Park,18,37.80,-84.85
Anderson Park Disc Golf,18,35.92,-79.10
Bomber Run at Anderson Pond,18,30.56,-86.51
Anderson River Park,18,40.47,-122.28
Anderson Valley Brewing Company,18,39.00,-123.36
Central Park Disc Golf Course,18,37.69,-97.12
Andrew Brown Park,18,32.98,-96.98
Andrews University,18,41.97,-86.36
Angel Fire Resort,18,36.39,-105.27
Angry Apple,18,42.91,-78.43
Ann Dever Park,18,26.92,-82.31
Ann Morrison Park,21,43.61,-116.22
Anna City Park,18,37.46,-89.25
Anna Page Park - East,18,42.31,-89.15
Anna Page Park - South,18,42.31,-89.15
Anna Page Park - West,18,42.31,-89.15
Anson B. Nixon Park,18,39.85,-75.71
Anthony Lake Disc Golf Course,18,37.17,-98.05
Apex Nature Park,18,35.72,-78.90
The Apple Farm - Spartan Course,18,42.95,-77.42
Apple Mountain,18,34.63,-83.45
Aquatic Park,18,37.86,-122.30
Arab City Park,18,34.32,-86.48
Arapahoe Basin Disc Golf Course,18,39.64,-105.87
Arboretum-Spiker Park,27,40.84,-81.41
The Arboretum,18,37.33,-95.27
Arcadia Lake - Blue,18,35.64,-97.38
Arcadia Lake - Red,18,35.64,-97.38
Arcadia Park #2,18,32.88,-97.28
Archer Disc Golf Course,18,41.15,-104.65
Archusa Creek Water Park,18,32.03,-88.71
Area 51,18,39.87,-82.97
Arethusa Springs Disc Golf Course,18,39.71,-82.20
Arizona Snowbowl,18,35.33,-111.71
Arkadelphia Youth Sports Complex,18,34.15,-93.08
S.Y. Wilson Arlington Sports Complex,18,35.28,-89.68
Armco Blue,18,38.44,-82.69
Armco Park,18,39.46,-84.28
Armco White,19,38.44,-82.69
Nelson Acres Disc Golf Course,18,36.38,-80.45
B. Cordell Disc Golf Course at Arnette Park,18,35.04,-78.87
Arrowhead County Club - The Water Way Course,18,33.71,-78.95
Arrowhead Disc Golf Course,27,38.13,-85.85
Arrowhead Park,18,34.14,-77.92
Arroyo Chamisos Disc Golf Course,18,35.64,-105.99
Arsenal at Southern Hills,18,36.56,-79.43
Art Dye Disc Golf Park,18,40.40,-111.78
Arthur Latham Park,18,43.28,-83.55
Arvig Park,18,46.60,-95.57
Ash Creek Park,18,32.88,-97.54
Ashbaugh Park,18,35.67,-105.97
Ashe County Park Disc Golf Course,18,36.44,-81.47
Ashe Lake Disc Golf Course,27,31.03,-89.17
Aspen Mountain,18,39.19,-106.82
Gaylord Disc Golf Course,18,45.02,-84.66
ASU Polytechnic 2023,18,33.31,-111.68
ASUMH Disc Golf Course,18,36.32,-92.39
Athens Regional Park Disc Golf Course,18,35.46,-84.64
Atkinson Park Disc Golf Course,18,37.86,-87.58
Auburn Regional Park,18,38.95,-121.11
Auburn University Montgomery (AUM),22,32.36,-86.17
Audubon Park,18,32.85,-96.62
Aumiller Park Disc Golf Course,18,40.80,-82.99
Ausable Chasm Disc Golf Course,18,44.52,-73.43
Austin Ridge Bible Church,20,30.32,-97.87
Austintown Township Park,18,41.07,-80.77
A.V. Anderson Park Disc Golf Course,18,31.54,-110.29
Avalanche Preserve Recreation Area,18,45.20,-85.01
Avalon Peaks Apartments,18,35.72,-78.82
The Aviary Disc Golf Course,18,38.79,-104.78
Avon Town Hall Disc Golf Course,18,39.77,-86.41
Axldog Acres Disc Golf Course,20,45.00,-92.05
Ayden Park,18,35.49,-77.43
Azalea State Park,18,42.06,-124.28
Aztec Disc Golf Course,18,36.82,-107.96
B. B. Owen Park,18,32.88,-96.70
B1 Disc Golf Course,18,33.37,-84.52
Back 40 at Fulkerson Winery and Farm,18,42.49,-76.93
Mont du Lac - Backwoods,18,46.65,-92.28
The Backyard at Skamania Lodge,18,45.69,-121.90
Bad Rock Creek Disc Golf Course,18,39.23,-94.39
Bailey Disc Golf Course,20,39.44,-105.44
Bailey Park Disc Golf Course,18,40.05,-91.07
Bailey Road Park,21,35.47,-80.84
Chili Disc Golf Course at Widener Park,18,43.08,-77.77
Baker Lake Park Disc Golf Course,18,41.35,-89.11
Baker Park,18,41.25,-89.94
Baldfoot Disc Golf Course,18,48.29,-116.58
Baldridge Park,18,38.46,-107.88
Baldwin City Lake,18,38.76,-95.16
Ballard Disc Golf Course,18,34.25,-88.77
Ballou Park Disc Golf Course #2,18,36.57,-79.42
Ballyknock,18,38.49,-79.34
Horseshoe Bend Disc Golf,18,29.71,-99.08
Banks County Parks and Recreation,24,34.32,-83.48
Baraboo Lions Disc Golf Course,18,43.48,-89.76
Barber Park,18,36.05,-79.75
Barboursville City Park,18,38.39,-82.30
Barclay College,18,37.62,-99.10
Barfield Crescent Park,18,35.78,-86.41
BarkEater Disc Golf at Osgood Pond,18,44.45,-74.26
Barnet Park,18,35.28,-77.64
Barnett Park - North,18,28.56,-81.44
Barnett Park - Parkside,18,28.56,-81.44
Barre Falls,18,42.43,-72.02
Bartlett Park Disc Golf Course,18,36.06,-118.93
Bartlett Park,18,39.75,-94.82
Base Camp Adventure Disc Golf Course,18,38.47,-109.65
Base Camp Outfitters Disc Golf,18,43.67,-72.80
Basil Griffin Park,18,36.92,-86.44
Basil Marella Park,18,43.24,-77.68
Carlsbad Disc Golf Course,18,32.41,-104.22
Bates Park,18,29.16,-95.44
Battle Park,18,35.96,-77.80
Battleground Disc Golf Course,18,39.16,-80.05
The Baty Disc Golf Course,18,42.23,-91.18
The Monster at Majette Disc Golf Course,18,30.24,-85.52
Bay Street Park Disc Golf Course,18,29.39,-94.89
Baylor Park,18,44.81,-93.94
Bayville Farms Park,18,36.90,-76.12
The Woods at Trinity,21,33.28,-96.61
Beachfront Park Disc Golf Course,24,41.75,-124.20
Beacon Glades,20,41.49,-73.97
The Beacon at Golden Hill State Park,18,43.37,-78.48
Beacon Hill Park Disc Golf,18,40.45,-111.80
Beacon Hollow Disc Golf Course,18,42.76,-95.57
Beal Park Disc Golf Course,18,31.97,-102.14
Beal Slough Disc Golf Course,18,40.74,-96.64
Beale's Treasure Disc Golf Course,18,37.38,-79.72
Bear Basin Disc Golf Course,18,44.93,-116.14
Bear Branch Sportsfield Park,18,30.19,-95.49
Bear Cave Park,18,43.86,-92.50
The Bear at Compass Lake,18,30.61,-85.38
Bear Creek Disc Golf - Birdie,18,40.48,-75.63
Bear Creek Disc Golf Course,18,35.43,-79.59
Bear Creek Resort,18,47.76,-115.47
Bear Hollow,18,36.95,-92.67
Bear Mountain Disc Golf Course,22,39.41,-105.48
Bear Pen Park,18,33.74,-90.76
The Bear,18,35.70,-81.36
Beardstown Disc Golf Course,18,40.01,-90.42
The Bear's Den,18,44.58,-85.55
Bearskin Creek at Dickerson Park,18,34.99,-80.56
The Beast on Honey Hill,18,34.31,-78.66
Beattie Park,18,34.63,-120.44
Beatty Park Disc Golf Course,18,40.35,-80.62
Beau Pre DiscGolfPark,18,40.96,-124.10
Beaufort County Community College Disc Golf Course,18,35.60,-77.12
Beaver Branch,18,39.41,-75.65
Beaver Brook Disc Golf Course,18,44.29,-70.07
Beaver Creek Mini Disc Golf Course,18,39.97,-76.15
Beaver Creek Resort,18,39.63,-106.53
Beaver Island State Park,18,42.96,-78.97
Beaver Meadows Resort Ranch,18,40.84,-105.65
Beaver Mountain,18,41.97,-111.54
Beaver Ranch - Bluebird Putting Course,20,39.51,-105.30
Beaver Ranch - Conifer,21,39.51,-105.30
Beaverfork Disc Golf Course,18,35.14,-92.46
Becker City Park,18,45.42,-93.87
Becky Zallek Disc Golf Course,18,41.62,-93.63
Bedford YMCA,18,37.34,-79.56
Beech Fork State Park Disc Golf Course,18,38.31,-82.35
Beech Mountain Resort Disc Golf,18,36.19,-81.88
Begg Park,18,42.33,-85.26
Bell & Howard Chevrolet Disc Golf Course,18,35.80,-80.85
Bell Park Disc Golf Course,18,35.23,-94.27
Bellamy Park,18,43.18,-70.89
Bellevue State Park,18,39.78,-75.50
Belmont Park,18,39.73,-84.14
Bemidji DiscGolf Park,18,47.49,-94.90
Ben Geren Park - North Yellow,18,35.31,-94.35
Ben Geren Park - South Orange,18,35.32,-94.36
Ben Geren Park - Massard Creek Disc Golf Course,18,35.32,-94.35
Benbrook Park Disc Golf Course,18,30.59,-97.88
Bengal Ridge at ISU,18,42.87,-112.41
Bennett's Creek Park,18,36.85,-76.48
Bernel Road Park,18,40.85,-77.88
Bertha Brock County Park,18,42.97,-85.12
Bethel University Disc Golf Course,18,45.06,-93.16
Northwest Community Park at Bethesda Baptist Church,18,39.88,-86.41
Bethesda Park,18,35.94,-78.85
Bicentennial Disc Golf Course,21,32.58,-97.34
Bicentennial Park,18,38.52,-90.02
Big Beaver Disc Golf Course,18,40.81,-80.38
Big Bend Disc Golf Course,18,36.12,-98.62
Big Bend,18,43.52,-85.58
The Big Buckeye,18,39.46,-81.45
Big Bull Creek,18,38.77,-94.97
Big Creek Park,18,40.57,-90.04
Big Creek State Park,18,41.80,-93.73
Big Cross Disc Golf Course,18,46.26,-119.14
Big Eau Pleine County Park,18,44.74,-89.85
Big Hill South,18,37.27,-95.47
The Big Muddy Monster at Riverside Park,18,37.76,-89.36
Big Portage Lake at Waterloo State Rec. Area,18,42.33,-84.24
Big Rock Disc Golf Course,18,41.42,-92.93
Big Shunga Park,18,39.02,-95.71
Big Sioux State Rec Area Disc Golf Course,18,43.58,-96.60
Big Trees Golf Course,18,37.54,-119.65
Big Walnut Sports Park,19,39.64,-86.80
Big Woods Disc Golf Course,18,42.55,-92.43
Bighorn Ridge,18,45.27,-111.30
Bijou Community Park,27,38.93,-119.97
Bill Allen Memorial Park,18,33.10,-96.86
Stony Gorge Disc Golf Course,18,39.59,-122.53
Bill Frederick Park; T2-The Turkeynator,18,28.50,-81.48
Bill Frederick Park at Turkey Lake: The Original,18,28.50,-81.48
Bill Frederick Park at Turkey Lake: The Woods,18,28.51,-81.48
Binghamton University Disc Golf Course,18,42.09,-75.97
Birch Hill Disc Golf Course,18,64.87,-147.65
Birch Park,18,42.87,-71.61
Birch Ridge Disc Golf Course,18,60.50,-151.00
Bird Bay Disc Golf Course,18,27.11,-82.44
Birdie Hill Disc Golf Course,18,41.30,-80.75
Bird's Nest Disc Park,24,39.82,-105.20
Birds of Paradise,27,40.24,-123.82
Bird's Ruins Disc Golf Course at Langer Park,19,43.18,-89.08
The TRAXX at Bishop Park,18,34.59,-92.51
Bismarck State College,18,46.82,-100.82
Bittersweet Ridge Disc Golf - North,18,43.86,-70.28
Bittersweet Ridge Disc Golf - South,18,43.86,-70.28
Bittner Park Disc Golf Course,18,41.33,-72.71
Black Bear Disc Golf at Shawnee State Park,18,38.74,-83.20
Black Bear Park,18,42.05,-88.23
Black Bear,18,45.41,-94.03
Black Butte Lake Disc Golf Course,18,39.77,-122.35
The Black Course,18,39.94,-80.73
Black Diamond Disc Golf Course at Emery Park,18,42.72,-78.59
Black Falcon Disc Golf Course,18,43.26,-85.75
Black Falls Disc Golf Course,36,44.92,-72.60
Black Hills State University,20,44.50,-103.88
Black Locust Disc Golf Course at Kensington - Blue,18,42.55,-83.64
Black Mountain YMCA,18,35.60,-82.34
Black Mountain,18,35.61,-82.33
Blackrock Disc Golf Course,18,38.82,-122.72
Black Widow Disc Golf Course,18,36.25,-80.20
Blackhawk Disc Golf Course,18,47.18,-113.47
Blackhawk,18,36.21,-95.90
Blackwater Creek at Sandusky Park,18,37.39,-79.20
Blackwater Disc Golf Course,18,30.64,-87.05
Blackwater Falls State Park Disc Golf Course,18,39.12,-79.50
Blanchard Disc Golf Course,18,32.18,-110.87
Blarney Stone Disc Golf Course,18,43.29,-78.71
Blatnick Park,18,42.81,-73.86
Blendon Woods Disc Golf Course,18,40.08,-82.89
Blissfest Disc Golf Course,19,45.62,-84.99
The Blockhouse - Darkside,18,38.16,-77.65
The Blockhouse - Sunnyside,18,38.16,-77.65
The Blockhouse - Tiki,18,38.16,-77.65
Blodgett Woods,18,44.59,-123.53
Bloomington Disc Golf Course,18,38.91,-95.38
Bloomsburg Town Park,18,40.99,-76.45
Blue Angel Park - Oaks Disc Golf Course,18,30.38,-87.42
Blue Angel Park - Palmetto Disc Golf Course,18,30.38,-87.42
Blue Angel Park - Pines Disc Golf Course,18,30.38,-87.42
Blue Flame at Pickens High School,18,34.90,-82.72
Blue Heron,18,39.48,-86.06
Blue Lake Disc Golf,18,45.56,-122.44
Blue Mountain Resort - Skyline Park,18,40.81,-75.52
Blue Mountain Resort - Valley Park,18,40.81,-75.52
Blue Mountain,18,46.84,-114.11
Blue Ribbon Pines Disc Golf Course,27,45.34,-93.22
Prairie Pass,18,38.83,-94.69
Blue Valley Park,18,39.08,-94.51
Blueberry Hill Estate and Day Spa,18,38.56,-86.44
Bluffton Village Hospital Disc Golf Course,18,40.88,-83.88
Boardman Park Disc Golf Course,18,41.02,-80.65
Bob Bryant Park,18,30.12,-97.34
Bob Mays Park,18,39.96,-91.39
Bob Mowery's Meadows at Clinton Lake State Park,18,38.94,-95.37
Bob Rodgers Memorial Disc Golf at Sam Houston Jones State Park,18,30.30,-93.26
Bobby Bland Disc Golf Course,18,37.47,-86.28
Boggy Depot Disc Golf Course,18,34.32,-96.32
Bogue Chitto State Park,18,30.76,-90.14
Bogus Basin Disc Golf at the Pioneer,18,43.77,-116.10
Bohannon Disc Golf Course,18,45.45,-123.82
Bomber Disc Golf Course,18,43.22,-75.41
Bond Lake Park Disc Golf Course,18,43.18,-78.91
Bondsteel Woods,18,39.78,-26.25
Bonham VA Hospital,18,33.58,-96.16
Bonita Springs Recreation Center,18,26.35,-81.79
Boom Field,18,43.52,-70.51
Boomer Lake Park,18,36.15,-97.07
Boondocks Farm Disc Golf Course,18,39.82,-85.54
Boone Woods Park,18,39.03,-84.71
Booneville City Park Disc Golf Course,18,34.66,-88.57
Booneville Disc Golf Course,18,35.15,-93.92
The Boonies Disc Golf Course,18,41.00,-86.11
Bootleggers Cave,19,40.38,-75.41
Borden Park - Eagle's Nest Rotary Disc Golf Course,18,36.54,-82.54
Borderland State Park,18,42.06,-71.17
Boulder Creek Golf Club,24,35.96,-114.86
North Cove - Boulders,18,35.89,-81.94
Boundary Waters - Three,18,33.67,-84.66
Boundary Waters - Two,18,33.67,-84.66
Boundary Waters - One,18,33.67,-84.66
Bousquet Ski Area,18,42.42,-73.28
Bow Lake Golf Course,18,39.70,-91.03
Bowers Park,18,33.18,-87.51
Boyd Hill,18,34.94,-81.04
Boyd Pond Park Disc Golf Course,18,33.45,-81.79
Boyertown Park Disc Golf,18,40.33,-75.63
Boylan Acres Arduous,18,39.53,-86.52
Boylan Acres Extreme,18,39.53,-86.52
Boyne Mountain Ski Resort,18,45.17,-84.93
Brackenridge Plantation Disc Golf Course,18,28.95,-96.54
Brackett's Bluff,18,35.49,-80.79
Bradford Park,18,35.45,-80.79
Bradley Center Disc Golf Course,18,35.28,-81.16
Bradley Park,18,40.71,-89.62
Brady Disc Golf Course,18,31.13,-99.35
Braem Park Disc Golf Course,18,44.67,-90.16
Brahan Springs Park,18,34.71,-86.60
Brakewell Steel/Warwick,18,41.30,-74.39
Branchwood Disc Golf Course,18,36.49,-94.34
Brandy Lake Disc Golf Course,18,45.90,-89.70
Brandywine Creek State Park,18,39.80,-75.58
Branson Trails - Blue,18,36.73,-93.27
Branstrom Park Disc Golf Course,24,43.48,-85.94
Brantwood Disc Golf Course,18,39.57,-75.81
BRATS,27,42.24,-83.86
Brazos Park East,18,31.58,-97.15
The Breakers,18,42.93,-86.16
Breckenridge Disc Golf Course at Miller Park,18,32.75,-98.89
The Breeze,18,37.51,-77.71
Brengle Terrace Park Disc Golf Course,18,33.21,-117.22
Brent Baca Memorial,18,35.02,-106.60
Brevard College Disc Golf Course,18,35.24,-82.73
Brian Harrison Memorial Disc Golf Course,18,32.70,-93.51
Brian Head Resort Disc Golf Course,18,37.68,-112.83
Brickyard Mile,18,30.39,-89.07
Brickyard Plantation Disc Golf Course,18,32.01,-84.11
Bridger Baxter Memorial Course,18,42.63,-114.48
Cornelius Road Park Disc Golf,18,35.61,-80.84
Bridgewater Links Disc Golf Course,18,34.47,-114.35
Briscoe Park,18,29.39,-95.24
Broadlawn Park,18,34.19,-97.13
Brock Park,18,29.84,-95.24
Broken Chains Disc Golf Course,18,39.78,-75.88
Broken Still,20,35.90,-87.35
Bromley's Woods and Meadows Disc Golf,18,43.21,-72.93
Brookfield Disc Golf Course,18,39.76,-93.06
Brookside Park,24,39.79,-86.11
Brooktrails Golf Course,18,39.44,-123.38
Brookview - Blue Course,18,44.98,-93.39
Brookview - Red Course,18,44.98,-93.39
Brown County Country Club,24,39.21,-86.29
Brown Deer Park,18,43.16,-87.96
Brown-Singleton Park,18,32.40,-96.83
Browns and Bows - Sharlotte's Web,18,39.32,-121.36
Browns Point/Buzzy's Creek,18,41.15,-74.35
Brush Creek Park,18,34.90,-87.99
Cat Hollow Disc Golf Course,18,30.51,-97.73
Bryan McClain Park,18,29.59,-98.39
Bryan Park,18,37.59,-77.48
Bryant Lake Park,18,44.88,-93.43
Bryant Park,18,44.64,-123.12
Brys Park Disc Golf Course,24,42.46,-82.92
Buccaneer State Park,18,30.26,-89.41
Buck Creek,18,42.96,-84.98
Buck Creek State Park,18,39.96,-83.72
Buck Forest Disc Golf Course,18,34.07,-81.22
Buck Hill,18,44.73,-93.29
Buckeye Park,18,40.63,-122.40
Buckhorn at Harris Lake County Park,19,35.63,-78.93
Buckingham Golf Course,18,39.00,-122.75
BuckSnort,28,39.41,-105.32
Bud and Carol Billiard Disc Golf Course,18,40.27,-80.54
Bud Hill - Original,18,35.23,-90.06
Bud Hill - Ridge,18,35.23,-90.06
Buddy Butts Disc Golf,18,32.30,-90.31
Buffalo Bobs,18,48.35,-114.33
Buffalo Mountain Disc Golf,18,36.79,-80.44
Buffalo Ridge Park,27,33.66,-112.05
Buffalo Run Pro Disc Golf Course,18,34.94,-95.76
Buffalo Trace Park,18,38.41,-86.10
Buffington Memorial Park Disc Golf,18,42.41,-124.42
Buffumville Lake - David Stidham Memorial Disc Golf Course,18,42.12,-71.91
Buhl Park Disc Golf Course,18,41.25,-80.48
Bull Run Regional Park,18,38.80,-77.48
Bulldog Bayou,18,30.39,-88.65
Bulloch Disc Golf Course - Main,18,32.48,-81.74
Bullsnake Alley Disc Golf Course,18,42.86,-106.31
Bummer Creek Disc Golf Course,18,44.36,-123.61
The Bunker at Jefferson Barracks,18,38.51,-90.28
Burbine Forest Disc Golf Course,18,42.82,-74.38
Burchfield Park - Devil's Den,18,42.61,-84.58
Burchfield Park - River's Edge,18,42.61,-84.58
Burde Ridge,22,35.83,-86.07
Burgess Park,18,41.66,-70.41
Burke Lake Park - Campside,18,38.76,-77.31
Burke Lake Park,18,38.76,-77.31
Burnet Woods,18,39.14,-84.52
Burns Park - Blue,18,34.80,-92.30
Burns Park - Red,18,34.80,-92.30
Burnsboro Disc Golf Course,18,44.38,-69.69
Burr Oak State Park,18,39.53,-82.04
Busch Creek Disc Golf Course,18,38.54,-90.99
Butler Farm,20,39.84,-80.23
Butter Valley Golf Port,18,40.39,-75.56
Buxton Woods,18,45.72,-123.17
Cloudcroft Mountain Disc Golf Course,18,32.96,-105.74
Cabin Creek,18,39.49,-84.60
Cache County Fairgrounds,18,41.72,-111.85
Cactus Flats,18,35.27,-114.03
Caddoa Disc Golf Course,18,38.07,-102.93
Cadyville Disc Golf Course,18,44.70,-73.62
Caesars Ford Park - Championship,18,39.66,-83.83
Cain Park,18,32.19,-95.85
Cal Young Park,18,32.44,-99.71
Caldwell Park,18,41.29,-92.61
Caliber Disc Golf Course,18,48.41,-116.50
California University of PA,18,40.05,-79.92
Calumet Lake Disc Golf,27,47.25,-88.44
Calvary Hill Park,18,45.54,-94.17
Calvert Regional Park,18,39.70,-75.97
Calvert Road Park,18,38.98,-76.92
Camden Park 1,18,41.42,-90.56
Camden Park 2,18,41.42,-90.56
Badlands,18,39.86,-105.02
Lower Badlands,18,39.85,-105.02
Cameron Park Lake Disc Golf Course,18,38.69,-121.00
Cameron University,18,34.61,-98.43
Camp 1:27,18,32.85,-86.52
Camp Allen,21,30.24,-95.96
Camp Binachi Disc Golf,18,32.31,-88.53
Gray Center - Rose Hill Disc Golf Course,18,32.75,-90.01
Camp Brook Disc Golf Course,18,42.04,-73.33
Camp Carl Disc Golf Course,18,41.12,-81.10
Camp Catalpa Disc Golf Course,18,37.74,-84.25
Camp Cullom Youth Camp Disc Golf Course,24,40.32,-86.63
Camp Dakota,18,44.95,-122.57
Camp Durant,18,35.34,-79.54
Camp Hawk,24,38.00,-97.36
Camp Hayo-Went-Ha,18,45.05,-85.31
Camp Jordan Disc Golf Course,19,35.00,-85.20
Camp Kearney,18,40.54,-89.87
Camp Kon-O-Kwee,18,40.81,-80.22
Camp Loucon,18,37.39,-86.24
Camp Luz Disc Golf Course,18,40.80,-81.74
Camp Monroe,18,34.89,-79.49
Camp Mt. Luther Disc Golf Course,18,40.94,-77.14
Camp North Star,18,46.09,-91.24
Camp Olympic Park,18,40.54,-75.52
Camp Petosega Disc Golf Course,18,45.39,-84.74
Camp Rockmont Disc Golf Course,18,35.63,-82.36
Camp Sankanac Disc Golf Course,18,40.16,-75.65
Camp Serene Disc Golf Course,18,44.14,-123.44
Camp Success,18,37.33,-80.81
Camp Swatara,18,40.50,-76.35
Camp Tadmor,18,44.47,-122.65
Camp of the Tall Pines,18,32.83,-105.54
Camp Tecumseh,18,40.60,-75.00
Camp Woodmont,18,34.67,-85.48
Campbell Highlands Disc Golf Course,18,44.06,-70.23
Campbell University Campus Recreation Disc Golf Course,18,35.41,-78.73
Campgaw Reservation - Blue/Black,18,41.06,-74.19
Canaan Riverbend Disc Golf Course,20,35.02,-81.00
Canby West,18,39.73,-75.58
Cane Creek Park,18,34.84,-80.69
Cane Creek Park,18,36.16,-85.54
Cane Ridge Advanced Disc Golf Course,18,35.99,-86.62
Cane Ridge - Short Course,18,35.99,-86.62
Cannon Ridge,18,38.30,-77.56
The Canyons at Dellwood Park,27,41.57,-88.06
The Canyons Resort,18,40.68,-111.58
Cape County Park Disc Golf Course - North,18,37.35,-89.59
Cape Henlopen State Park,19,38.79,-75.10
Capital City Disc Golf Course,18,31.56,-88.04
Lakeview Park Disc Golf,18,38.22,-84.82
Capital Springs,18,43.02,-89.35
Carey Park,18,38.03,-97.92
Carlton Disc Golf Sanctuary,18,46.65,-92.43
Carmel Middle School,18,36.54,-121.90
Carnes Park,18,33.57,-92.83
Carrollton Park Disc Golf Course,18,38.76,-90.42
Stadium Disc Golf at Carson Ridge,18,39.19,-119.68
Carter Park Disc Golf Course,18,35.93,-94.19
Carter Park,18,41.37,-83.62
Carter's Course at Springfield Park,18,44.54,-85.25
Carter's Disc Golf,18,44.13,-70.46
Cascade Sports Park,20,44.50,-116.03
Cascade Township Park,18,42.89,-85.50
Cascades Gateway,18,44.91,-122.99
Case DiscGolfPark,18,36.13,-96.12
Casey R. Logan Disc Golf Course,18,36.01,-75.66
Casper Disc Golf Course,18,42.86,-106.31
Cass Benton Hills Disc Golf Course,18,42.42,-83.48
Cass City Park,18,43.61,-83.17
Castle Hayne Park,18,34.33,-77.90
Castle Hills,18,33.03,-96.91
Casture Pattle Disc Golf Course,18,32.85,-85.25
Catamount Links,18,35.31,-83.19
Catawba Meadows,18,35.76,-81.71
Cato Park,18,38.38,-81.64
Cave Run Disc Golf Course,18,38.12,-83.54
Cavitt's Creek Disc Golf Course,18,37.17,-81.51
Currituck County Rural Center,18,36.13,-75.82
Cedar Beach Disc Golf Course,18,40.63,-73.34
Cedar Creek Central,18,43.61,-94.48
Cedar Creek Disc Golf Course,18,35.91,-94.26
Cedar Creek East,18,43.61,-94.48
Cedar Creek West,18,43.61,-94.49
Cedar Glades,18,34.54,-93.09
Cedar Grove Disc Golf Course,18,39.18,-85.03
Cedar Hill Park,21,36.27,-86.75
Cedar Hills Rotary Park,18,35.86,-78.63
Cedar Lakes Disc Golf Course,18,38.79,-81.69
Cedar Ridge Disc Golf Course,18,39.08,-94.89
County Farm Disc Golf Course,18,39.15,-85.04
Cedar Valley Disc Golf Course,18,32.62,-96.76
Cedarock DGC at Cedarock Park,18,35.99,-79.44
The Cedars Disc Golf Course at Smith Park,18,32.95,-96.38
The Cedars at Green Haven,18,45.21,-93.40
Cedars of Lebanon State Park,20,36.08,-86.32
Cedarville University,18,39.76,-83.81
Cemetery Ridge Disc Golf Course at Hugh White State Park,18,33.81,-89.74
Centennial Park,18,38.97,-95.26
Centennial Park,18,36.28,-95.80
Centennial Park Course,18,37.35,-108.57
Center Chains DGC at Hope A. Davey Park,18,44.38,-72.72
Center City Disc Golf,18,32.27,-90.10
Center of the Nation Disc Golf,18,44.67,-103.85
Centerville Disc Golf Course,18,40.73,-92.88
Central Baptist Church,18,32.08,-84.20
Central College Disc Golf Course,18,41.40,-92.93
Central Michigan University,18,43.57,-84.77
Central Park,18,34.97,-89.95
Central Park,18,42.80,-73.91
Central Park Disc Golf Course,18,34.44,-118.52
Central Park Disc Golf Course,27,36.62,-88.31
Central Park Disc Golf Course,18,40.15,-104.94
Central Park Disc Golf Course,20,34.25,-84.10
Central Pines,27,32.58,-83.69
Central Valley,18,35.94,-86.39
Central WY College Disc Golf Course,18,43.03,-108.43
Centre Hills Park,18,39.71,-104.80
Century Park Disc Golf Course,18,34.93,-82.24
Ceraland Disc Golf Course,18,39.16,-85.81
Cerbat Cliffs Golf Course,18,35.21,-114.04
Cessna West Park,18,37.65,-97.27
Chadron State Park,18,42.71,-103.01
The Chain Links at Nashboro,18,36.09,-86.64
The Chain Links,18,37.78,-98.03
Chainbiters at Brown's Farm,21,42.38,-79.07
ChainDragon at The Freeport Sports Complex,18,30.49,-86.15
Chainocito,18,35.54,-105.83
Chains Edge - Green,24,45.91,-93.46
Chains Edge - Red,24,45.91,-93.46
Chalybeate Springs Sports Complex,18,37.12,-86.25
Champion's Course,18,43.68,-85.48
Lake Hiawatha Preserve,18,28.57,-81.78
Champoeg State Park,18,45.25,-122.88
Chandler Park - Moose Run,18,36.13,-96.07
Chandler Park - Original,18,36.13,-96.07
Chapel Hill Disc Golf Course,18,30.64,-97.63
Chapman Pines Disc Golf Course,18,34.77,-86.55
Charlie Vettiner Park,18,38.17,-85.56
Chattahoochee Pointe Disc Golf Course,18,34.07,-84.12
Chattooga Belle Farm,18,34.77,-83.27
Chauga Rapids,18,34.68,-83.14
Chautauqua City Park,18,41.01,-91.95
Chautauqua Park,18,39.45,-98.11
Chautauqua Park Disc Golf,19,32.00,-90.36
Chautauqua Park,18,40.25,-96.74
Chavez Ridge Disc Golf Course at Elysian,27,34.08,-118.24
Checotah Disc Golf Course,18,35.48,-95.52
Cheney State Park West,18,37.72,-97.83
Chennault Blue Disc Golf Course,18,32.50,-92.03
Chennault Original Disc Golf Course,18,32.50,-92.03
Chennault Green Disc Golf Course,18,32.50,-92.03
Cherokee Landing State Park,18,35.76,-94.91
Cherokee Park Disc Golf Course,18,36.26,-83.28
Cherry Creek Park Disc Golf Course,18,32.55,-95.88
Cherry Peak Disc Golf Course,18,41.93,-111.76
Showboat Park,18,43.18,-84.12
Chester Disc Golf Course,18,43.27,-72.61
Chester State Park,27,34.68,-81.24
Chestnut Ridge - The Ravine,18,42.72,-78.74
Chetek High School Disc Golf Course,18,45.31,-91.66
Chickasabogue County Park - New Ridge,18,30.78,-88.11
Chickasabogue County Park - Original,18,30.78,-88.11
Chickasaw Community Park,18,30.76,-88.08
Chico Hot Springs Disc Golf Course,18,45.34,-110.69
Chikumbuso Disc Golf Course,18,41.50,-71.89
Children's Home of Lubbock,18,33.61,-101.78
China Peak Disc Golf,27,37.24,-119.16
Chippewa Banks,18,43.61,-84.25
Chisholm Disc Golf Course,18,47.48,-92.87
Choccolocco Park,18,33.60,-85.79
Choctaw Creek Park - A,18,35.48,-97.27
Choctaw Lake Disc Golf Course,18,33.28,-89.15
Chris Roberts Memorial Course,18,38.36,-75.58
Christ The King Center,18,43.07,-73.50
Christ's Church Disc Golf Course,18,40.98,-92.40
Church Creek Park Disc Golf,18,48.24,-122.33
Churchville Park Disc Golf Course,19,43.11,-77.88
Cico Park,18,39.20,-96.62
Cider Hill Farm,18,44.10,-69.38
Circle C Ranch on Slaughter Creek,18,30.20,-97.89
The Hideaway Disc Golf Course,18,32.84,-96.17
Citizens Lodge Disc Golf Course,18,30.80,-85.22
Citronelle Municipal Park,18,31.07,-88.32
City of Antigo Disc Golf Course,18,45.15,-89.14
City Beach Disc Golf Course at Darwin Wright Park,18,34.57,-82.68
City of Breezy Point Disc Golf Course,18,46.61,-94.23
Hart Hydro Dam Disc Golf Course,18,43.72,-86.37
City In the Hills,18,35.40,-118.89
City Lake Park,18,35.35,-80.23
City Park,18,34.65,-99.32
Schreiner Park Disc Golf Course,18,30.49,-99.76
City Park,18,30.00,-90.09
City View,18,36.22,-115.14
Civitan Disc Golf Course,18,35.75,-95.33
Clanton Disc Golf Course,18,32.84,-86.63
Clapp Memorial Park,18,37.66,-97.28
Clarence Darrow Park (Young's Run),18,41.28,-80.83
Clark's Run Disc Golf Course at Freedom Center,18,39.23,-77.55
Clarkson City Park,18,37.50,-86.21
Clay Disc Golf Course,21,33.72,-86.58
Clay Park - West,18,43.15,-76.19
Clay Park - East,18,43.15,-76.18
Claystone Park,18,32.83,-83.78
Clayton Community Disc Golf Course,18,35.65,-78.48
The Claytons Disc Golf Course,18,35.81,-83.95
Clear Creek Park Disc Golf Course,18,41.12,-104.84
Clear Creek Park,18,39.83,-84.92
Clear Creek State Park,18,41.33,-79.10
Clear Fork Reservoir Disc Golf Course,18,40.70,-82.62
Clearwater/Pleasant Lake,18,45.28,-94.12
Cleburne Disc Golf,18,32.38,-97.38
Clement Farm Disc Golf Course,18,42.81,-71.11
Clemson U. Outdoor Lab,18,34.62,-82.85
Cleveland Lake,18,38.81,-94.55
Cliff Stephens Park,21,27.97,-82.72
Cline Park Disc Golf Course,18,35.47,-93.45
Clinton Disc Golf Course,18,35.60,-92.46
Clinton Hills Disc Golf Course,18,38.55,-89.96
Cloman Park,18,37.29,-107.06
Campgaw Reservation - Green,18,41.06,-74.19
Pine Hills Disc Golf Course - South,18,42.89,-84.34
Cloudland Canyon State Park,18,34.82,-85.48
Clover Cliff Ranch,18,38.33,-96.70
Clover Dell Park,18,38.68,-93.29
The Club on Cypress,18,34.81,-87.71
Clute Park,18,29.02,-95.41
Clyde Fant Disc Golf Course (Veterans Park),18,32.51,-93.72
Coal Creek,18,40.04,-105.04
Coalinga Disc Golf Course,18,36.14,-120.37
Codorus State Park - Purple,18,39.79,-76.90
Codorus State Park - Blue,18,39.79,-76.90
Codorus State Park - Red,18,39.79,-76.90
Codorus Township Park,18,39.76,-76.80
Cody Park Disc Golf Course,20,41.15,-100.76
Coggshall Park,18,42.56,-71.79
Cold Brook Park,24,42.25,-85.35
Cold Hollow Disc Golf Course,18,44.90,-72.82
Coldwater Ranch,18,33.72,-112.32
Coleman Park Disc Golf,18,33.13,-95.62
Coleman Park,18,33.17,-102.27
Colina Park Golf Course,18,32.75,-117.08
College of Eastern Idaho,18,43.49,-111.99
College of Southern Idaho,18,42.58,-114.47
Colonial Estates,18,35.20,-97.42
Colorado Mountain College - Leadville,18,39.23,-106.30
Colorado Mountain College Spring Valley,18,39.47,-107.24
Colton Disc Golf Course,18,34.07,-117.36
Columbia International University,18,34.08,-81.08
Columbia Park,18,37.84,-90.50
Columbia Park,18,46.23,-119.20
Columbia Shore Disc Golf at Fort Stevens State Park,23,46.20,-123.95
Comanche Trail - East,21,31.83,-102.36
Comanche Trail Park - Lake,18,32.22,-101.48
Comanche Trail Park - Mountain,18,32.22,-101.48
Comanche Trail - West,18,31.83,-102.38
The Commander,18,42.55,-71.61
Commons Park Disc Golf Course,18,41.63,-84.99
Commons Park,18,26.69,-80.23
Community Park,18,41.47,-88.18
The Compound,18,33.24,-84.41
Concordia University Irvine Disc Golf Course,18,33.65,-117.81
Confluence Disc Golf Course,18,38.75,-108.08
Conocido Park,18,33.63,-112.13
Cooke City Disc Golf Course,18,45.02,-109.94
Coon Rapids Disc Golf Course,21,45.16,-93.29
Coonskin Disc Golf Course,18,38.39,-81.58
Copper Mountain,18,45.98,-112.54
Copper Sky,18,33.04,-112.04
Copperhead Canyon YMCA,18,36.09,-96.00
Copperhead Disc Golf Course,18,30.13,-93.92
Altmaier Family Park Disc Golf Course,18,41.69,-91.62
Corbin Park,18,47.70,-116.99
Cordova Park,18,41.68,-90.32
Cornerstone Church Disc Golf Course,18,29.04,-95.45
Cornerstone Disc Golf Course,18,39.88,-81.91
Cornerstone University Disc Golf Course,18,42.98,-85.59
Cornwallis Road Park,18,35.98,-78.95
CoServ Lost Pines,18,33.14,-97.05
Cottage Hill Park,18,30.66,-88.18
Cottonmill Disc Golf Course,18,40.71,-99.14
Cottonwood Creek Park,18,38.93,-104.76
Cougar Country,18,34.02,-78.06
Cougar Lake,18,34.60,-92.87
Cougar Point Disc Golf Course,18,37.99,-120.50
Countryside Park,21,41.55,-87.21
Course Dovillio,18,36.15,-95.87
The Course at Lyon College,18,35.78,-91.62
The Course With No Name,18,36.41,-78.74
Courtland Township Disc Golf Course,18,43.18,-85.49
Cove Point Disc Golf Course,18,47.25,-91.31
Cove Valley Christian Youth Camp,18,39.84,-77.97
Covenant Village Disc Golf Course,18,39.73,-78.59
Covenant,18,35.56,-77.37
Covered Bridge Park,18,40.63,-75.56
Cowan Lake DGC,18,39.39,-83.89
Cowboy Course,18,38.03,-103.63
Cowskin Disc Golf Course,18,37.78,-97.55
Coyote Hills,18,40.26,-77.16
Coyote Point Disc Golf Course at Lake Casitas,18,34.41,-119.35
Coyote Ridge at Belgrade Lakes,18,44.60,-69.90
Coyote Trace,18,39.38,-86.05
Coyotes Den,18,44.43,-121.25
C.P. Adams Park,18,44.73,-92.83
CR Farm Disc Golf,21,44.20,-69.87
Craftsbury Disc Golf,18,44.68,-72.36
Craighead Forest Disc Golf - Yellow,18,35.77,-90.71
Craighead Forest Disc Golf - Red,18,35.78,-90.71
Cranberry Valley,18,44.26,-70.29
Cranbury Park,18,41.16,-73.40
Crandall Park Disc Golf Course,18,43.32,-73.66
Crane Creek Disc Golf,18,38.34,-122.64
Crane Hill Disc Golf Course,18,42.15,-72.40
Crazy 8,18,38.32,-82.44
Creative Recreations,18,44.19,-70.52
Credit Island,18,41.51,-90.61
Creekside Disc Golf Course at Crooked Creek Park,18,35.07,-80.62
Creekside Disc Golf Course,18,40.28,-76.93
Creekside Park,22,35.89,-79.94
Creekside Park,18,35.06,-77.04
Creekside Park Disc Golf Course,18,36.05,-94.24
Creekside Park,21,40.67,-111.85
Creeping Creek Disc Golf - Blue,18,39.64,-76.91
Creeping Creek - Pink,18,39.64,-76.91
Creola City Park,18,30.90,-88.04
Crestmont,18,39.18,-86.55
Crestview Park - East,18,39.02,-95.74
Crestview Park - West,18,39.02,-95.74
Creve Coeur Hillside,18,38.72,-90.47
Creve Coeur Lakeside,18,38.72,-90.48
Cripps Creek,18,43.94,-69.93
Crockett Park,18,35.98,-86.77
Crooked Birch,18,42.18,-72.18
Crooked Creek Crossing,18,35.11,-80.65
Crooked Creek Park,27,34.14,-81.34
Cross Creek Disc Golf Course,18,39.50,-106.86
Cross Farms,18,41.87,-72.34
The Crossing,18,36.08,-80.12
Crossroads Disc Golf Course,27,31.12,-97.41
Crossroads Disc Golf Course,18,32.53,-95.86
Crossroads of Life Disc Golf Course,18,32.63,-96.91
Crowle Hole Disc Golf Course at Kiwanis Park,18,45.44,-84.98
Crowleg Disc Golf at Hickey Park,18,36.37,-119.76
Crowley's Ridge College,18,36.07,-90.59
Crown College Disc Golf Course,18,44.89,-93.74
Crown Point Campground Disc Golf Course,18,44.03,-73.42
Crow's Lake,18,34.10,-83.59
Crump City Park,18,35.22,-88.32
Crystal City Underground Disc Golf Course,18,38.21,-90.38
Crystal Cove Park,18,42.45,-96.42
Crystal Lake Park,18,43.46,-88.80
Crystal Mountain - Base Disc Golf Course,18,46.94,-121.47
Crystal Mountain - Summit Disc Golf Course,18,46.94,-121.47
Crystal Pond Disc Golf Course,18,41.92,-72.09
Crystal Springs Disc Golf Course,18,46.89,-99.35
CSU Pueblo,18,38.31,-104.58
CSU San Marcos Disc Golf Course,18,33.13,-117.16
CSUMB Cypress Disc Golf Course,20,36.65,-121.80
CSUMB Oaks Disc Golf Course,20,36.65,-121.80
CSUMB Worlds Layout,27,36.65,-121.80
Cuchara Mountain Park,18,37.35,-105.12
Cuesta Disc Golf at Hill College,18,32.01,-97.09
Cumberland Green,18,38.69,-104.68
Cumberland Youth Camp,18,36.51,-87.51
Cupertino's Course,18,38.17,-86.81
Curtis Memorial Park,18,38.43,-77.57
Custer Greens Disc Golf Course,18,42.34,-85.29
Cuyahoga Community College - West,18,41.37,-81.76
CVU High School Disc Golf Course,18,44.34,-73.11
Cypress Point Park Disc Golf Course,18,27.95,-82.54
D. F. Buchmiller Park,18,40.01,-76.30
D 'n' D Disc Golf,18,44.43,-69.77
Dabney State Park,18,45.52,-122.35
Dacey Field Disc Golf,18,42.12,-71.40
Dacusville DGC,18,34.91,-82.54
Dairy Creek Golf Course,18,35.33,-120.73
Matthew Sorenson Memorial Disc Golf Course,18,44.27,-105.49
Dalimonte Disc Golf at Sault Seal Rec Area,18,46.47,-84.35
Dallas City Park,18,44.93,-123.32
Dallas City Upshot Disc Golf Course,18,40.63,-91.16
Dallas Island Disc Golf Course,18,35.19,-85.14
The Dam Course at Binder Park,18,38.60,-92.30
Dankwardt Park,18,40.78,-91.11
Daphne Central Park,18,30.65,-87.90
Darby Disc Golf Course,18,46.02,-114.17
Darden Harvest Park,18,32.52,-95.41
Darnestown Swim and Racquet Club,18,39.10,-77.31
Dash's Track Disc Golf Course,18,33.13,-96.86
Daubendiek Disc Golf Course,18,42.01,-94.39
Dave Heiders Hike,18,45.15,-123.13
David Imbrock Memorial Disc Golf at Bixler Lake,18,41.44,-85.24
David L. Baker Golf Course,18,33.73,-117.95
Davidson College,18,35.50,-80.84
Davie Disc Golf Course,20,36.01,-80.53
Davis Forest Disc Golf Course,18,41.78,-71.91
Davy Crockett Disc Golf Course,18,31.31,-95.45
Dawgwood Ditch,21,43.55,-88.20
Dawson Park,18,47.21,-121.02
Dayspring Ranch,18,42.95,-123.28
Dayton Disc Golf Course,18,39.29,-119.53
Deadwood Disc Golf,18,41.80,-85.37
Deep Creek Dreams,21,36.15,-79.37
Deer Creek Disc Golf Course,18,33.63,-91.81
Deer Lakes Park,18,40.62,-79.82
Deer Lick Park,18,33.75,-84.69
Deer Park Disc Golf Course,18,47.95,-117.46
Deer Run Disc Golf Course,18,39.20,-86.25
Deerfield Disc Golf,20,34.15,-84.81
Deerfield Nature Park - Deerfield,18,43.59,-84.89
Deerfield Nature Park - Wildwood,18,43.59,-84.89
Deerknuckle AKA Scratch Gravel,18,46.65,-112.07
Deerwood Park,18,42.46,-92.30
DeFunk Disco,18,30.74,-86.12
DeGray Lake Resort State Park Disc Golf,18,34.25,-93.15
DeGray Lower Lake Disc Golf Course,18,34.18,-93.09
Deis Hill Park,18,40.54,-81.48
Dekalb Memorial Park Disc Golf Course,18,33.74,-84.33
Delagoon Disc Golf Course,27,46.26,-96.04
DeLaveaga Golf Course,18,37.00,-122.00
DeLaveaga Disc Golf Course,29,37.01,-122.00
Delong Middle School,18,44.82,-91.54
Delphi Golf Course,18,46.99,-123.02
Delt Church Park,18,41.55,-85.46
Delta County Fairgrounds,18,38.80,-107.72
Deming Park - South,18,39.47,-87.36
Deming Park - North,18,39.47,-87.35
Dena Dee Disc Golf Course,18,37.04,-95.59
Denison Park,18,42.14,-77.04
Desert Emerald Disc Golf Course,18,32.37,-106.49
Detroit Lakes City Park,18,46.81,-95.84
Devens Disc Golf Course - The General,18,42.55,-71.60
Devens Disc Golf Course - The Hill,18,42.55,-71.60
Devil's Glen Disc Golf Course,18,41.53,-90.48
Devil's Grove Disc Golf - The Demon,18,44.08,-70.13
Devil's Grove Disc Golf - The Devil,18,44.08,-70.13
Devil's Thumb Ranch Resort and Spa,18,39.97,-105.78
Devou Park,18,39.07,-84.54
Dewey Disc Golf Course,18,35.32,-100.58
Dexter's Alley,18,21.34,-157.94
Dexter Park Disc Golf Course,18,43.92,-122.81
Diamond X - Orange,18,45.82,-108.69
Diamond X,27,45.82,-108.69
Diavolo at New Hope,22,35.82,-78.93
Dickson Disc Golf Course,18,36.09,-87.41
Diggins Hill Disc Golf Course,18,44.26,-85.40
Dillon Park,20,33.95,-80.36
Dineen Park,18,43.08,-87.99
Dinosaur Valley Disc Golf,18,34.27,-95.33
Dire Wolf Disc Golf Course,18,37.23,-80.41
Disc Creek Disc Golf Course at Thompson Park,28,35.24,-101.84
DISC at Fall Creek,18,39.88,-86.01
The Disc Golf Course at Primland,18,36.66,-80.40
Disc Golf Kymulga,18,33.33,-86.30
Disc It,18,37.14,-94.39
Disc Side of Heaven - Champ Course,18,35.82,-90.78
Disc Side of Heaven - Rec Course,18,35.82,-90.78
Discfunctional Acres,18,42.38,-85.10
The DiscO at Eastmark,18,33.34,-111.62
The Killer Course at Discovery Hill,18,45.21,-113.88
Hueston Woods Disc Golf Course,27,39.57,-84.74
Ditto Farms Disc Golf Course,18,39.62,-77.67
Dixieland Park,18,26.17,-97.72
DL Jackson,18,33.56,-96.91
Doane College,18,40.62,-96.95
Doc Cramer Disc Golf Course,18,39.70,-74.28
Dodds Park Disc Golf Course,18,40.13,-88.28
Dog Island Disc Golf,18,40.18,-122.24
Dog River,18,33.64,-84.83
Dogman's Den at Oakwood Lake Park,18,42.87,-83.27
Dolese Youth Park - Original,18,35.53,-97.61
Dolese Youth Park - West,18,35.53,-97.61
Dolese Youth Park - East,18,35.53,-97.61
Dolly Cooper Disc Golf Park,18,34.80,-82.47
Don Davidson Disc Golf Course,19,35.15,-86.60
The Don Shannon Disc Golf Course at Dundee Lake,18,33.29,-84.25
Donner Ski Ranch,18,39.32,-120.33
Dorey Park,18,37.46,-77.34
Doris Leeper Disc Golf Course,18,29.07,-80.98
Dorr Township Park,18,42.73,-85.73
Dorsey's Knob Disc Golf Course,18,39.60,-79.96
Double Cabin Disc Golf Course,18,37.93,-107.85
Double Creek Disc Golf Course,18,33.12,-86.77
Double K Disc Golf,18,47.22,-121.16
Duncan Park,18,39.81,-89.67
Downriver Disc Golf Course at Riverside State Park,18,47.69,-117.47
DR Disc Golf - Bobcat,18,44.73,-68.80
DR Disc Golf - Long 18,18,44.73,-68.80
Dr. James A. Dillon Park,18,40.00,-86.06
Dr. Lawless Park,18,41.90,-85.86
Dragan Field - Talon,18,44.03,-70.30
Dragan Field - Red Dragon,18,44.03,-70.30
Dragon Ridge,18,38.01,-92.77
The Dragon Disc Golf Course,18,34.99,-97.38
Dragonfly Disc Golf,19,41.38,-71.94
Dragonfly,18,40.37,-111.84
Dragons Breath,18,39.65,-105.09
Dreamtime Ranch,21,39.14,-105.77
Dreher Park,18,26.67,-80.07
Dretzka Park - Winter,27,43.17,-88.06
Dretzka Park - Summer,27,43.17,-88.06
Driesner Park,18,43.67,-92.97
Driftless 18 at Gamehaven Reservoir,18,43.95,-92.44
Druid Hill - Forest Drive,18,39.33,-76.65
Druid Hill Park - Legacy Course,18,39.33,-76.65
Drumm Farm Disc Golf Course,18,39.06,-94.39
Dry Creek Disc Golf Course,18,40.14,-105.17
Dry Creek Parkway,18,41.15,-104.75
Dry Creek Preserve Disc Golf Course,18,36.43,-119.02
Dry Creek,18,35.03,-80.62
Dry Run Creek Disc Golf Course,18,43.71,-98.02
Dublin Disc Golf Course,19,32.09,-98.35
Dubois County Park Disc Golf Course,18,38.32,-86.88
Dubuque Veterans Memorial Park,18,42.52,-90.70
Duck Creek,18,37.84,-99.97
Ducks Pond Disc Golf Course,18,43.01,-82.99
Duessen Park,18,29.91,-95.15
Duke Creek Campground,18,43.24,-85.57
Duke Foundation Disc Golf Course at Edison,18,40.16,-84.22
Duncan Lake Disc Golf Course,18,31.31,-89.28
Duncan Lake - East,18,34.52,-97.81
Duncan Lake - West,18,34.52,-97.81
Duncan Park,18,31.54,-91.39
Duneberry Farms,18,43.63,-86.51
Dunegant Park,18,38.78,-90.29
Dunham Recreation Center,18,39.12,-84.59
Dupree Park,18,34.11,-84.50
Dupree Park,18,34.85,-92.13
Eagle Disc Golf Course,18,38.25,-96.18
The Eagle Disc Golf Course,18,33.85,-87.26
Eagle Hill Disc Golf Course,18,34.93,-95.73
Eagle Island State Park,19,43.69,-116.40
Eagle Point Disc Golf Course,18,39.05,-88.85
Eagle Point Disc Golf,18,41.90,-90.18
Eagle Ridge Park at Civic Center,18,41.70,-88.35
Eagle Run 18,18,43.63,-90.98
Eagle Summit at Decatur High School,18,33.22,-97.58
Eagle Valley at USI,18,37.96,-87.68
Eagle Valley Disc Golf,18,35.80,-96.65
Eagles Crossing Disc Golf Course,18,38.97,-91.21
Eagles Landing at Little Black Creek,18,31.10,-89.48
Eagles Nest at Little Black Creek,18,31.09,-89.48
The Eagles' Nest,18,35.62,-77.45
Eagles Nest Disc Golf Course,18,39.68,-82.57
Eagle's Nest at Sagebrush Flats,18,45.89,-112.47
Eagle's Nest,18,35.45,-94.34
Earhart Disc Golf Course,18,39.54,-95.15
Earl W. Brewer Park,18,42.82,-85.66
Earlewood Park,18,34.03,-81.04
East Carolina University,18,35.63,-77.32
East China Township Park Disc Golf Course,18,42.76,-82.49
East Clayton Park,18,35.64,-78.42
East Frankfort Park Disc Golf Course,24,38.19,-84.84
East Georgia College Disc Golf Course,18,32.60,-82.31
East Hanover Township Community Park,18,40.36,-76.68
East Harbor State Park Disc Golf Course,18,41.54,-82.82
East Jordan Community Park,18,45.14,-85.12
East La Loma Park,27,37.65,-120.96
East Lake,18,40.95,-91.52
East Metro Park,18,30.29,-97.53
East Palestine City Park Disc Golf Course,18,40.83,-80.55
East Park,18,43.16,-93.19
East Roswell Park,18,34.00,-84.30
East Swinney Park,18,41.07,-85.16
Wally Wurld Disc Golf Course,18,43.45,-72.87
Easter Seals Disc Golf Course,27,39.75,-105.66
Easterlin Park,18,26.17,-80.16
Eastern Avenue Park,18,41.55,-90.55
Eastern Oregon University,18,45.32,-118.09
Eastern Park,18,34.77,-76.52
The Oaks at Eastgate Park,18,31.16,-85.32
Eastminster Church Disc Golf Course,18,37.72,-97.22
Eastway Park,18,35.26,-80.77
Echo Valley at Hoffmann Reserve,18,39.54,-84.16
Ecker Hill Disc Golf Course,18,41.84,-72.46
Ed Austin Park (Fore Palms Disc Golf Course),24,30.36,-81.51
The Edge Disc Golf at Riverside Park,24,43.95,-86.28
Edgewater Disc Golf Course,18,48.42,-122.34
Edgewater Disc Golf Course,18,40.57,-122.37
Edinboro University Royal Scots Disc Golf Links,18,41.87,-80.12
Edisto Memorial Gardens Disc Golf Course,18,33.48,-80.87
Edmund Orgil,20,35.37,-89.84
Edmunds Park Disc Golf Course,18,36.72,-78.87
Edmundson Park,18,41.28,-92.66
Edora Park,18,40.56,-105.05
Edward Medard Disc Golf Park,18,27.93,-82.17
Edwards Park,18,34.88,-84.93
Edwin M. Griffin Preserve,18,34.95,-81.89
Effingham Disc Golf Course,18,39.12,-88.53
Post'l Point Disc Golf at Eglin Air Force Base,18,30.48,-86.48
Eiffel Tower Park,18,36.29,-88.30
Eighteens at The Pond - East,18,34.70,-92.36
Eighteens at The Pond - West,18,34.70,-92.36
El Dorado Disc Golf Course,18,37.81,-96.88
El Dorado Park Disc Golf Course,18,33.81,-118.10
El Rio Disc Golf Course,18,32.24,-111.00
Redemption Ranch,25,38.98,-90.81
Eldon Lyon Park,18,35.51,-97.64
Eleanor Park,18,38.54,-81.92
Elevation Chains,19,44.65,-72.72
Elizabethtown College,18,40.15,-76.59
Elk Creek Disc Golf Course,18,37.38,-78.87
Elk Ridge Ranch,18,38.56,-86.76
Elk Run Disc Golf Course,18,42.68,-96.69
Ella Sharp Disc Golf Course,18,42.22,-84.42
Ellicott Creek Disc Golf Course,18,43.01,-78.87
Ellis Park Disc Golf Course,18,35.73,-80.47
Ellison Park,18,43.15,-77.53
Ellsworth AFB Disc Golf Course,18,44.14,-103.08
Elm Creek Park Reserve,18,45.14,-93.44
Elmer Thomas Disc Golf Course,18,34.62,-98.40
Elmwood Park,18,39.83,-99.89
Elon Park - Angry Beaver,18,35.02,-80.84
Elon Park - Eager Beaver,18,35.02,-80.84
Elver Park,18,43.04,-89.50
Elwood Disc Golf Course,18,40.26,-85.85
Emerald Hills Disc Golf Course,19,37.45,-122.26
Emerson Park Disc Golf Course,18,42.90,-76.54
Emmanuel Pines Camp,18,34.57,-112.54
Emmitsburg Community Park Disc Golf Course,18,39.70,-77.33
Emory and Henry College,18,36.77,-81.83
Empire Park Disc Golf Course,18,36.66,-93.13
Emporia Country Club,18,38.42,-96.19
Emporia Middle School,18,38.43,-96.22
Enchanted Lands Disc Golf,18,33.40,-104.57
Endicott Park,18,38.71,-90.34
Energy Rotary Club Disc Golf Course,20,44.29,-105.45
Enger Park,18,46.78,-92.13
Engler Park Disc Golf Course,18,37.75,-90.43
Englewood Metro Park Disc Golf Course,18,39.88,-84.28
Englewood Park,18,35.95,-77.83
Enka High School Disc Golf Course,18,35.53,-82.67
Ennis Disc Golf at Lake Clark Park,18,32.32,-96.66
Enterprise Community Park,18,40.55,-122.34
Ephram White Park,18,37.04,-86.35
EPIC KC - North,18,39.05,-94.37
Escondido Rotary Disc Golf Course at Kit Carson Park,18,33.08,-117.06
Estabrook Park,18,43.10,-87.91
Estates Park,18,39.72,-105.18
Estero Disc Golf Course,18,26.43,-81.80
Ethan Page Park Disc Golf Course,18,36.20,-86.50
Etowah Disc Golf Course,18,34.16,-84.74
Eubank City Park,24,37.28,-84.65
Eugene T Mahoney State Park,18,41.03,-96.31
Euharlee Disc Golf at Joe Cowan Park,18,34.15,-84.94
Evangola State Park,18,42.61,-79.11
Evergreen Disc Golf Course,18,29.72,-94.96
Evergreen Disc Golf Course,18,47.07,-122.97
Evergreen Open Space,18,34.44,-119.89
Everwood Disc Golf Course,18,40.48,-90.67
Ewing Park,18,41.54,-93.58
Expo Park,18,39.70,-104.86
F. Burton Smith Park,23,28.36,-80.86
Fahrens Park Disc Golf Course,21,37.33,-120.49
FTX Disc Golf Course,18,31.72,-96.14
Fairfield Park,18,42.35,-88.11
Fairfield University,18,41.16,-73.26
Fairgrounds Disc Golf Course,18,37.78,-80.46
Fairhope Municipal Park,20,30.54,-87.89
Fairmont Park Disc Golf Course,18,40.72,-111.86
Fairmont Park,18,39.18,-96.55
Fairview Park Disc Golf Course,18,40.06,-76.48
Fairview Park Disc Golf Course,18,34.25,-86.69
Fairways of Canton,20,34.27,-84.52
Fairy Diddle at Snowshoe Mountain,18,38.42,-79.97
Falcon Ridge Disc Golf Course,18,43.73,-87.80
Fallasburg Park,18,42.99,-85.33
Fallen Hero Memorial Disc Golf Course,18,31.98,-98.03
Falling Creek Park - Red,18,37.31,-79.50
Falling Creek Park - Yellow,18,37.31,-79.50
Fantle Memorial Park,18,42.89,-97.39
Far Hill Disc Golf Course,18,43.17,-85.72
The Farm Disc Golf Course,18,36.49,-93.81
Farm Life Disc Golf,18,35.74,-76.99
The Farm at Quail Valley,18,37.20,-97.00
Farmington Park Disc Golf Course,18,40.68,-90.01
Farmington Park Disc Golf Course,18,35.95,-77.84
Farmville Disc Golf Course,18,35.60,-77.58
Farragut State Park - A.W.O.L.,18,47.97,-116.56
Farragut State Park - Cutthroat,18,47.97,-116.56
Farragut State Park - Little Black Bear,18,47.97,-116.56
Farragut State Park - Northstar,18,47.97,-116.56
Farragut State Park - Wreckreator,18,47.97,-116.56
Farris Memorial Park,18,36.43,-79.99
Faulkner State Community College,18,30.85,-87.78
Fay Clark Park,18,42.05,-91.70
Fayette County Park,18,38.09,-81.15
Faylor Lake DiscGolfPark,18,40.76,-77.22
FDR State Park,18,41.29,-73.81
F.E. Warren Air Force Base,18,41.15,-104.85
Feeney,18,38.13,-120.45
Fehringer Ranch Park,18,39.64,-105.12
Fel-Pro RRR Disc Golf Course,18,42.24,-88.23
Fellowship Bible Church DGC,18,39.34,-77.84
Ferrettie Baugo Creek County Park,18,41.67,-86.06
Ferrum College Disc Golf,18,36.93,-80.02
Ferry Park,18,30.42,-86.60
Feyodi Creek Disc Golf Course,18,36.28,-96.44
Fiddler's Creek Golf Center,23,45.99,-91.52
Fields of Dreams Disc Golf Course,18,40.87,-74.90
Findley State Park Disc Golf Course,18,41.13,-82.22
Finnon Lake,27,38.80,-120.75
Fire Mountain Disc Golf Course,18,39.57,-107.52
Fire Mountain Disc Golf Sanctuary,18,35.51,-83.30
Fire Swamp at West Ashley Park,18,32.82,-80.06
Firefighters Park,18,42.61,-83.18
Firefly Disc Golf,18,43.49,-70.60
First Responders Disc Golf Course,18,36.45,-119.58
Fitzgerald Park,18,42.76,-84.76
Five Seasons Disc Golf Course,18,44.67,-90.76
Flanacher Park Disc Golf Course,21,30.66,-91.23
Flat Creek Estate Disc Golf Course,18,30.48,-98.05
Flat Rock Disc Golf,18,42.53,-72.24
Flat Rock Park Disc Golf Course,18,32.55,-84.88
Flat Rocks Disc Golf Course,18,39.74,-82.60
Flatirons West Gold Tees,18,40.01,-105.22
Flip City Disc Golf Park,24,43.62,-86.25
Flora Rotary Disc Golf at Charley Brown Park,18,38.66,-88.54
Floral Park,24,28.72,-82.30
Florence Disc Golf Course,18,45.93,-88.25
Flory Park,18,40.06,-82.43
Palmyra Black at Flower City Park,18,39.80,-91.54
Fly By Faith,18,40.42,-86.80
Flying Ace at Lufbery Park,18,41.46,-72.84
Flying Armadillo Disc Golf Club - Big Course,18,29.95,-97.97
Flying Armadillo Disc Golf Club - Gold Mini Course,18,29.95,-97.97
Flying Bee Country Club,18,37.81,-97.37
Flying Dragon Disc Golf Course,18,34.57,-87.04
Flying Eagle Disc Golf - Raymond,18,32.26,-90.41
Folletts Park,18,41.75,-90.35
Fontana Village Resort Disc Golf Course,18,35.43,-83.82
Foothills Disc Golf Course,18,34.80,-82.59
Ford Park,21,32.49,-93.85
Forest City Disc Golf,21,43.26,-93.63
Forest Glen,18,43.13,-70.99
Forest Park Disc Golf Course,18,38.62,-95.27
Forest Park Disc Golf Course,18,39.51,-87.12
Forest Valley Disc Golf Course,18,38.55,-77.35
Forked Run State Park,24,39.09,-81.77
Forest Hills Disc Golf and Country Club,18,28.18,-82.73
Forrest Hills Disc Golf Paradise,18,38.46,-90.58
Forrest Park,18,32.72,-101.95
Forrest Park,18,40.46,-89.00
Forsyth Park Disc Golf Course,18,39.93,-88.96
Forsythe Park,18,41.68,-87.49
Fort Benning Disc Golf Course,18,32.37,-84.96
The Fort Buenaventura,18,41.22,-111.99
Fort Buhlow Disc Golf Course - Gold,18,31.34,-92.45
Fort Buhlow Disc Golf Course - Purple,18,31.34,-92.45
Fort Irwin DiscGolf Park,18,35.26,-116.68
Fort Kent Outdoor Center Disc Golf Course,18,47.23,-68.59
Fort Lee Recreational Park,18,37.23,-77.34
Fort Lewis College,18,37.27,-107.87
Fort Massac State Park Disc Golf Course,18,37.15,-88.71
Fort Nugent Park Disc Golf,18,48.29,-122.68
Fort Rucker Flying Disc Golf Course,18,31.34,-85.70
Fort Snelling,18,44.89,-93.19
Fort Steilacoom Disc Golf Course,18,47.18,-122.56
Fort Tuthill Disc Golf Course,18,35.14,-111.69
Fort Walla Walla Disc Golf Course,18,46.05,-118.36
Fort Washington State Park,18,40.12,-75.23
Fort Yargo State Park,18,33.98,-83.73
Fort Zumwalt Park,18,38.80,-90.71
The Fortress Disc Golf Course,18,48.01,-106.43
Foundation Park Disc Golf Course - Figure 8,18,38.53,-89.11
Foundation Park Disc Golf Course - Champ 18,18,38.53,-89.11
Fountain Hills Disc Golf Course,19,33.60,-111.71
Four Mound Disc Golf,18,47.75,-117.45
Four Seasons Disc Golf Course,18,34.51,-110.12
The Fox Burrow,18,46.57,-116.30
Fox Chase,18,35.39,-80.19
Fox Hill Flyer,18,39.28,-94.57
Fox Hill Park,18,36.18,-115.36
Fox Prairie,18,38.10,-88.57
Fox River Park - Grey Fox,18,42.54,-88.17
Fox Run at Belgrade Lakes,18,44.60,-69.90
France Park,18,40.76,-86.46
Francis E. Walter Dam - Original,20,41.11,-75.71
Frank Liske Park,18,35.36,-80.62
Frank Merry Park,18,40.36,-85.29
Franklin Falls Dam Disc Golf,18,43.47,-71.65
Franklin Field,18,35.15,-119.44
Franklin Park Disc Golf Course,18,41.89,-92.27
Franklin Park Disc Golf Course,18,39.13,-77.74
Franklin - Simpson Disc Golf Course,18,36.73,-86.55
Fredericksen Wilderness Park,18,47.76,-122.64
FreeDaddy Disc Golf Course,18,34.74,-79.48
Freedlander Park,18,40.84,-81.94
Freedom Park,27,30.91,-83.24
Freedom Park,18,41.31,-87.43
Freeman Lake Park,18,37.72,-85.88
Freeman Park Disc Golf Course,18,43.51,-112.05
French Creek State Park,18,40.20,-75.78
Friends of Punderson State Park Disc Golf Course,18,41.46,-81.22
Frisco Disco,18,35.23,-75.63
Frisco Peak One Disc Golf Course,27,39.58,-106.08
Fritchie Park,18,30.25,-89.77
Fritz Park,18,32.80,-96.94
Frog Creek Disc Golf Course at Shale City,18,42.27,-122.58
Frog Rock Park,18,33.80,-84.64
Frontier Park,18,38.86,-99.34
Frontier at Rodeo Park,18,40.66,-91.32
Frost Creek,20,48.96,-122.07
Frost Valley YMCA,18,41.99,-74.50
Fruita Riverfront Park Disc Golf Course,18,39.15,-108.75
FSU Panama City,18,30.19,-85.72
Ft. Hamby Park,18,36.14,-81.29
Ft. Stockton Disc Golf Course,18,30.89,-102.87
Fuller Park,18,41.44,-91.09
Fulwood Disc Golf Course,18,31.46,-83.50
The Fun Farm,22,38.24,-86.03
Fun Junktion Disc Golf Course,18,36.24,-76.27
Future Fuel Disc Golf Course,18,35.72,-91.55
G T Bray Park Disc Golf Course,18,27.48,-82.61
GA Veterans State Park,18,31.96,-83.92
Gaffney's Grove Disc Golf Course,18,47.38,-122.04
Galloway Hammond Rec Center,18,30.74,-98.23
Gamers Ranch Disc Golf Course,18,38.38,-91.71
Garden City Disc Golf Course,18,37.97,-100.85
Garden Grove,18,35.98,-79.75
Gardner Disc Golf Course,18,38.84,-94.93
Gardner-Webb University Disc Golf Course,18,35.25,-81.67
Garfield Park,18,42.93,-85.66
Gargoyle Park,18,42.07,-78.47
Gargoyles Garden Disc Golf Course,18,19.56,-155.11
Long Cedar Disc Golf Course,18,38.31,-95.24
Garvin Park Disc Golf,18,37.69,-96.98
The Gates of Hell Disc Golf Course,18,33.21,-116.94
Gateway Canyons Resort Disc Golf,18,38.68,-108.98
Gateway Hills Park (Carroll Marty Disc Golf Course),18,42.01,-93.65
Gateway West (The Privy),18,32.76,-97.29
Gatewood Park,20,34.17,-84.72
Gator Links at NLA,18,30.61,-87.08
Gavins Point Disc Golf Course at Lewis and Clark State Rec. Area,18,42.86,-97.55
General Sibley Park,24,46.75,-100.79
George Anderson Disc Golf Course in Yellowstone National Park,18,44.55,-110.40
George E. Francis - Riverview Park,18,36.86,-94.88
George Payne Cossar State Park,18,34.14,-89.89
The George Sappenfield Disc Golf Course at Yadkin Memorial Park,18,36.14,-80.75
George Ward Park,24,33.49,-86.82
George Washington Park,18,39.82,-86.11
George Wilson Park,18,41.64,-86.15
Georgetown College,18,38.21,-84.55
Gering Disc Golf Course,18,41.82,-103.67
Ghost Town,20,39.78,-105.53
Ghost Tree at Augusta Disc Golf,18,44.29,-69.77
Giants Ridge,18,47.54,-92.29
Giles Run at Laurel Hill Park,18,38.70,-77.24
Gillies Creek Park,18,37.52,-77.41
Girdwood Forest Fair Park,36,60.96,-149.14
Glacier Point,18,59.09,-135.39
Glacier Ridge Metro Park,18,40.16,-83.19
Glass Park at Fort Wainwright,18,64.84,-147.69
Glen Helen Regional Park Disc Golf Course,18,34.21,-117.41
Glen Isle Resort,21,39.41,-105.50
The Glen Disc Golf Course,18,39.83,-84.87
Glenburnie Park,18,35.14,-77.06
Glendale City Park,18,42.74,-123.43
Gleneagles Disc Golf Course,18,37.72,-122.42
Glenn C. Hilton Memorial Park,24,35.76,-81.36
Glenwood Park Disc Golf Course,18,37.34,-81.15
Glenwood Park,18,37.33,-95.27
Glooscap Trail,22,40.01,-82.41
Gmfdc Urban Disc Golf Course,24,39.52,-84.40
Goat Hill Park,18,33.20,-117.36
Goat Island Disc Golf Course,18,35.24,-81.07
Goblin Valley State Park,18,38.57,-110.71
Golden Bell Camp Disc Golf Course,18,38.97,-105.20
Golden Eagle Disc Golf Course at Buckhorn Canyon,18,40.43,-105.89
Golden Gate Park Disc Golf Course,18,37.77,-122.49
Golden Grove Farm and Brew,18,34.68,-82.52
Golden Hills - Black Bear,19,37.17,-80.41
Golden Hills - Golden Bear,19,37.17,-80.42
The Golden 18,18,37.77,-92.88
Goldenrod Disc Golf Course,18,43.10,-83.56
The Golf Club of Oregon,18,44.65,-123.10
Golf Course,18,45.09,-114.61
Golf Tri-Plex,18,46.22,-119.15
Goliath,18,37.35,-79.40
Gonzales Disc Golf Course,18,29.51,-97.43
Goose Creek Disc Golf Course,18,41.58,-90.58
Goose Landing at Richfield Park,18,35.48,-80.26
Gordon Holton Memorial Disc Golf Course at Delaware State Park,27,40.38,-83.06
Gordy Road Preserve Disc Golf Course,27,27.40,-80.40
GOREC Disc Golf Course,18,44.67,-85.48
The Gorge at Anthony Run,18,40.64,-79.28
Goyne Park Disc Golf Course,18,37.36,-77.46
Graceland University,18,40.62,-93.93
Pecan Hollow at Graham Creek Nature Preserve,18,30.34,-87.64
Graham Memorial Park,18,37.57,-85.24
Granbury City Park Disc Golf Course,21,32.45,-97.79
Grand Central Station,18,34.71,-82.78
Grand Geneva Resort and Spa,18,42.61,-88.41
Grand Miami Disc Golf Course,19,40.53,-84.38
Grand Park Disc Golf Course,18,39.93,-105.79
Grand Targhee Resort,18,43.76,-111.00
Grand View Winter Disc Golf Course,18,46.72,-92.28
Grand Woods Park,18,42.76,-84.61
Grandpa's Pond Disc Golf Course,18,37.18,-113.38
Grandview Park,18,41.62,-93.56
Lions Park Disc Golf Course,18,45.93,-116.11
Lolo Hot Springs,18,46.72,-114.53
Grant County Park,18,38.78,-84.61
Grant's Nonesuch Valley Farm,18,43.58,-70.48
The Grassman at West Branch State Park,18,41.14,-81.10
Grassy Creek Disc Golf Course,18,39.56,-86.09
Graviss McDonald's Disc Golf Course,18,38.05,-84.76
Grayling Rotary - PDGA,24,44.65,-84.75
Grayling Rotary - Pine Knoll,18,44.65,-84.75
Graytown Park,18,29.21,-98.32
Great Bend Disc Golf Course,18,38.37,-98.79
Great Blue Heron,24,41.23,-82.59
Great River Road State Park,18,33.85,-91.05
Great Seal State Park,18,39.40,-82.94
McAllen Disc Golf Course,18,26.18,-98.27
Green Lake DiscGolfPark,18,44.60,-85.76
Green River State Park Disc Golf Course,18,38.99,-110.15
Green Valley Disc Golf Course,18,33.23,-84.22
Green Valley Ranch Disc Golf Course,18,39.77,-104.74
Greenbelt Lake at Kincaid Park West,18,34.99,-100.91
Greenbelt Park,18,32.99,-96.89
Greenbriar Community Center,18,32.67,-97.34
Greenbrier Disc Golf Course,18,35.23,-92.36
Greenbrier State Forest Disc Golf Course,18,37.73,-80.36
Greene Co. Community Park,18,38.27,-78.42
Greenfield Disc Golf Course,18,37.43,-79.93
Greenfield Lake City Park - Front,18,41.30,-94.48
Greenfield Lake City Park - Back,18,41.29,-94.47
Greenridge Disc Golf Course,19,39.70,-75.69
Greenville College Disc Golf Course,18,38.89,-89.41
Greenwood Park,18,30.57,-91.16
Greenwood Parks and Recreation,18,34.21,-82.14
Greg Carter Memorial Disc Golf Course,18,33.64,-86.60
Greystone Woods at Central Park,18,40.84,-74.50
First Assembly of God Temp Course,18,33.27,-84.31
Griffin Park,18,35.24,-97.43
The Griffin,18,42.53,-78.67
Griggs Reservoir Park,18,40.01,-83.09
Grignon Park,18,44.29,-88.26
Grindstone Park,27,33.32,-105.68
Grizzly Oaks,18,42.67,-83.21
The Grove,18,35.24,-101.83
Grove City Community DGC,18,39.86,-83.07
Grove City Disc Golf Course,21,41.16,-80.10
Grove Creek Run at Graham Park,18,36.42,-89.03
The Grove at North Regional,18,43.81,-123.05
The Grove at Thompson Grove Park,18,40.24,-74.34
The Mounds at Groves Park,27,35.99,-84.28
Grubaugh Park,18,37.03,-93.20
Guilford Meadows,18,36.10,-79.89
The Gulch at Merrill Park West,18,42.45,-83.82
Gulley Park,18,39.39,-84.07
Gun Barrel City Disc Golf Course,18,32.34,-96.12
GUNKS Disc Golf Course at Majestic Park,18,41.68,-74.16
Gunn Park Disc Golf Course,18,37.83,-94.72
Guthrie Park Disc Golf Course,18,32.51,-94.74
H. V. Griffin Park,18,35.50,-86.45
H.A. Alexander Park,18,34.48,-87.31
H.A. Meyer Park,18,43.74,-87.99
Hackett Hill,18,41.79,-73.92
Hackett Park,18,40.70,-75.24
Haikey Creek Park,18,36.00,-95.85
Hal & Berni Hanson Regional Park Disc Golf Course,18,38.98,-77.55
Halawaka Park,18,32.67,-85.22
Half-Moon Lagoon Disc Golf Course,18,43.54,-90.01
Halifax County Disc Golf Course,18,36.35,-77.62
Halpatiokee Disc Golf Course,18,27.10,-80.25
Halstead Hill,36,42.14,-76.33
Ham Lake Disc Golf Course,18,45.25,-93.22
Hammon Grove Park,18,39.23,-121.40
Hammond Farm Disc Golf Course,18,43.40,-70.79
Hammond Hill Disc Golf Course,18,42.67,-85.31
Hampton Park Disc Golf Course,18,34.90,-82.39
Handyman Ace Hardware Disc Golf Course,18,39.79,-84.01
The Hangar - Wingfoot Lake State Park,18,41.02,-81.36
The Hangar at Robert Cardinal Park,18,33.22,-87.61
Hanging Oaks at Western Gateway Park,18,39.20,-121.19
Hanna Hills Disc Golf Course,18,37.73,-92.25
Hanson Ponds Disc Golf Course,18,47.19,-120.92
Hap McLean Disc Golf Course,18,37.81,-97.32
Hapana Disc Golf,18,44.47,-68.36
Hard'Ack Disc Golf Course,18,44.82,-73.07
Hardaway Point,18,35.40,-80.11
Harder Park Disc Golf Course,18,45.52,-92.95
Harding University,18,35.24,-91.72
Harmon Hills,27,36.36,-82.65
Harmony Bends Disc Golf at Strawn Park,18,38.97,-92.41
Blackberry Pines - Disc & Camp,20,33.03,-95.03
Harrison Road Disc Golf,18,36.33,-88.86
Hobbs Army Airfield Disc Golf Course,18,32.77,-103.77
Harry Myers Disc Golf Course,18,32.93,-96.45
Hart Park - Shark Tooth Mountain Disc Golf Course,18,35.44,-118.90
Hart Park - Suicide Flats,18,35.44,-118.90
Harter Park Disc Golf Course,24,40.20,-84.83
Hartsuff Park Disc Golf Course,18,42.14,-70.90
Harvest Fields,18,40.77,-77.77
Haslet Community Park,18,32.97,-97.35
Hatten Park Disc Golf,18,44.39,-88.75
Haubstadt Johnson Township Disc Golf Course,18,38.19,-87.56
Haven Hill Disc Golf Course,18,34.17,-81.27
Hawk Hollow,18,38.15,-77.86
Hawkins Woods,18,41.99,-71.37
Hawks Landing,18,42.63,-78.86
Hawk's Nest,18,39.68,-86.25
Haybro Red Tail Disc Golf Course,18,40.37,-106.95
Hayden Park Disc Golf,18,41.94,-84.62
Haywood Community College,18,35.53,-82.93
Hazel Landing Park,18,39.94,-86.07
Hazy Shade Disc Golf Course at Snyder Park,18,39.93,-83.84
HCC Disc Golf Course,18,42.20,-72.65
Heartwood Retreat - Main Course,24,46.02,-91.99
Heckscher State Park Forest Disc Golf Course,21,40.71,-73.17
Heilmann Park,18,35.47,-120.64
Henagar Log Cabin Disc Golf Course,18,34.62,-85.76
Hendershots Haven,18,35.61,-81.23
Henderson Hills,18,37.86,-87.58
Henderson Lake Nature Center,18,43.45,-86.33
Hendrickson Park,18,36.77,-90.41
Henry Horton State Park,18,35.59,-86.69
Henry Jackson Park,18,37.66,-84.78
Hensley Lake Disc Golf Course,18,37.12,-119.87
Hereford Lions Disc Golf Course,18,34.81,-102.39
Heritage Farm Park,20,39.50,-77.35
Heritage Oaks Trail,18,31.04,-97.68
Heritage Park,18,39.29,-84.66
Heritage Park,18,34.15,-86.84
Heritage Park Disc Golf Course,18,38.83,-94.75
Heritage Park,18,41.62,-87.97
Heritage Park Disc Golf Course,18,36.31,-119.77
Heritage Park Disc Golf Course,18,33.00,-97.04
Heritage Park Disc Golf Course,18,41.93,-84.00
Heritage Park Belton,18,31.08,-97.45
Heritage Park,21,41.73,-93.57
Heritage Point Disc Golf,18,34.79,-84.94
Heritage Trails Disc Golf Course,18,43.30,-88.27
Herman C. Michael Park,18,33.87,-83.48
Herman Hill Park,18,37.65,-97.34
Herman Park,18,44.97,-85.66
Hermiston Desert,18,45.85,-119.31
Heron's Nest,18,43.97,-84.76
Herr Park Disc Golf Course,18,40.02,-76.38
Herrin Memorial Park,18,37.81,-89.02
Hewitt Park,18,31.45,-97.20
Heymann Park,18,30.22,-92.00
Hickory Heights Golf Course,18,39.87,-76.83
Hickory Hill Camping Resort,18,42.37,-77.31
Hickory Hills,23,44.77,-85.66
Hickory Winds Disc Golf Course,18,37.76,-89.25
Hickory Run State Park,19,41.03,-75.68
Hidden Acres Executive Disc Golf Course,18,42.74,-78.07
Hidden Cove Disc Golf Course,18,34.92,-110.19
Hidden Lake Disc Golf Course,18,41.50,-87.34
Hidden Lake,18,45.46,-94.20
Mont du Lac - Hidden Meadows,18,46.66,-92.29
Hidden Oaks Disc Golf Course,18,27.93,-81.97
Hidden Ridge,18,38.76,-84.76
Hidden Valley Country Club,18,36.41,-85.33
Hideaway Park,18,32.53,-92.66
Hiestand Park,18,43.10,-89.31
High Bridge Park Disc Golf Course,18,47.65,-117.45
High Sierra Disc Golf Course,18,45.83,-108.52
Highbridge Hills - The Bear,18,46.36,-90.74
Highbridge Hills - Blueberry Hill,18,46.37,-90.75
Highbridge Hills - Chestnut Grove,18,46.38,-90.74
Highbridge Hills - Granite Ridge,18,46.37,-90.75
Highbridge Hills - Highbridge Gold,18,46.37,-90.75
Highbridge Hills - Woodland Greens,18,46.37,-90.75
Higher Ground,18,35.63,-78.72
Highland Community College,18,42.28,-89.67
Highland Hills Disc Golf Course - North Wilkesboro,20,36.16,-81.13
Highland Park,18,40.46,-86.14
Highland Park/St.Paul,18,44.91,-93.15
Highland Park,18,42.97,-85.65
Highland (Pilcher) Park,18,41.53,-88.03
Highland Road Park,18,30.35,-91.07
Highland Springs Reservoir,23,38.94,-122.90
The Highlands of Conway,18,42.54,-72.71
The Highlands at J. Travis Price Park,18,36.53,-86.86
Highzer Fields Disc Golf Course (aka The Roundhouse Farm),18,43.11,-88.62
Hill Country Fellowship,18,30.75,-98.23
The Hill at Northview Church,18,39.98,-86.07
Hill Top Disc Golf Course,24,43.58,-86.22
Hillcrest Park Disc Golf Course,18,35.30,-79.42
Hiller Park,26,30.41,-88.95
The Hills Disc Golf Course,18,32.96,-91.36
Hillsboro Windsock Disc Golf Course,18,38.35,-97.21
Hillsdale Lake Disc Golf Course,18,38.65,-94.91
Hilltop Meadows,18,46.33,-85.52
Hilltop Ski Area,18,61.14,-149.76
Hinsley Park,18,32.55,-94.73
Hinson Lake Disc Golf Course,18,34.94,-79.75
Hippo Ridge Disc Golf Course,18,39.33,-81.94
Hobbs Farm Park,18,33.60,-85.08
Hobby Hill Disc Golf Course,18,39.23,-94.58
Hobson Grove Park - Original,18,37.01,-86.46
Hobson Park Mini Disc Golf Course,18,40.04,-76.21
Hocking College Disc Golf Course,18,39.44,-82.22
Hockinson Meadows Disc Golf Course,18,45.70,-122.50
Highland Park Disc Golf Course,18,35.88,-97.41
Hole in the Sky Disc Golf Course,18,39.65,-106.84
Holland Park,18,29.02,-80.96
Holloway Park Disc Golf Course,18,28.01,-81.91
The Hollows South - Red Dragon,18,42.95,-71.46
The Hollows North,18,42.96,-71.47
Holly Woods Disc Golf Course,24,42.80,-83.53
Holston Creek Park,27,35.06,-82.17
Holton Disc Golf Course,18,43.42,-86.09
Holts Summit Greenway Park Disc Golf Course,18,38.65,-92.12
Holy Rocks Disc Golf Course,18,29.84,-98.46
Homestead Air Reserve Park,18,25.52,-80.40
Honda Park Disc Golf Course,18,33.61,-86.13
Honey Bear Hollow Campgrounds,18,40.79,-86.15
Honey Creek Disc Golf Course,18,31.05,-81.54
Honolulu Disc Golf Association,18,21.31,-157.85
Hoodsport Hills,18,47.42,-123.19
Brent Hambrick Memorial Disc Golf Course at Hoover Dam,27,40.11,-82.88
Hop Springs Beer Park,18,35.82,-86.27
Hope Lake DGC @ Greek Peak Mountain Resort,18,42.51,-76.15
Horizons Park,18,36.23,-80.23
Hornet's Nest Disc Golf Course,18,39.99,-90.77
Hornets Nest Park,18,35.32,-80.87
Horning's Hideout,18,45.67,-123.01
The Horse Course,18,35.04,-80.68
Horseshoe Lake,18,47.41,-122.67
Lexington Manor,18,38.26,-76.45
Houghton College Disc Golf,18,42.43,-78.15
Houghton Field of Dreams,18,42.43,-78.16
Houghton Woods,18,42.43,-78.16
House of Trees,18,29.65,-82.63
Hover Links,18,32.21,-80.70
Gum Branch Park Course at Camden Disc Golf Park,18,30.80,-81.63
Hoyt Grove,18,36.11,-97.04
HP Disc Golf Course,18,44.58,-123.24
Hopkins Lake Disc Golf Course,18,42.98,-84.18
Hualapai Mountain Park,18,35.10,-113.89
Don Crane Disc Golf Course,18,39.70,-91.39
Hudson Family Park Disc Golf,18,40.43,-84.97
Hudson Mills Metropark - Monster,24,42.38,-83.91
Hudson Mills Metropark - Original,24,42.38,-83.91
Hudson Park Disc Golf,18,38.76,-90.29
Hudson Springs Park Disc Golf Course,18,41.25,-81.41
Hughes Park Disc Golf Course,18,35.84,-80.10
Humble Tree Disc Golf Course,18,33.70,-86.53
Humboldt River Disc Golf,19,40.83,-115.76
Hummel Park Disc Golf Course,18,41.37,-95.96
Hummingbird Beach Disc Golf at Lake Eufaula State Park,18,35.40,-95.60
Hunter Farm,18,41.15,-80.09
Hunter Memorial Park,18,33.74,-84.77
Hunter Mountain,18,42.21,-74.21
Hunter Park,18,43.19,-73.05
Hunter Park,18,36.03,-95.91
Huntington Beach Central Park,18,33.70,-118.01
Hunts Hideaway,18,43.17,-83.52
Hurricane Springs Disc Golf Course,18,34.72,-82.55
Hyland Ski and Snowboard Area,18,44.84,-93.36
Hyzer Creek,18,43.10,-74.04
Hyzer Pines,18,44.29,-121.58
IAIA Disc Golf Course,18,35.64,-105.97
IBM Research Triangle,18,35.90,-78.86
ICC Indian Disc Golf Course,18,34.28,-88.42
Idle Hour Lake Disc Golf Course,18,37.14,-95.29
Idlewild,24,39.04,-84.74
IG Levy Disc Golf Course,18,30.38,-88.52
Illinois Central College Disc Golf Course,18,40.71,-89.51
Immanuel Baptist Church Disc Golf Course,18,35.38,-96.90
Independence Community College Disc Golf Course,18,37.20,-95.72
Indian Camp Creek Park,18,38.88,-90.92
Indian Creek Disc Golf Course,18,38.05,-83.94
Indian Creek Disc Golf Course,20,34.74,-86.70
Indian Creek Park Disc Golf Course,18,33.60,-83.60
Indian Creek Park,18,44.12,-87.66
Indian Foothills Park - North,18,39.12,-93.17
Indian Foothills Park - South,18,39.12,-93.17
Indian Hills Community College,18,41.05,-92.39
Indian Hills Disc Golf Course,27,39.08,-119.78
Indian Hills Disc Golf Course,18,38.98,-92.26
Indian Hills Recreation Area,18,27.42,-80.32
Indian Mound Disc Golf,18,38.06,-83.91
Indian Mountain State Park,18,36.59,-84.14
Indian Oaks,18,42.24,-88.62
Indian Park Disc Golf Course,18,41.41,-76.05
Indian Riffle Park,18,39.69,-84.12
Indian Rock at Rotary Park,18,38.42,-82.39
Indiantown Park Disc Golf Course,18,37.35,-75.90
Indiantown Park North 18,18,37.35,-75.90
Indiantown Park South 18,18,37.35,-75.90
Industrial Park,18,35.23,-91.73
Indy Horizon Disc Golf Course,18,39.90,-85.99
Ingersoll Memorial Disc Golf Course,18,42.27,-89.15
Inn of the Mountain Gods Resort and Casino,18,33.30,-105.69
Inspiration Point,18,32.10,-88.70
Inverness Disc Golf Park,18,33.42,-86.72
Ionia State Recreation Area,24,42.94,-85.13
Iowa Regular Baptist Camp,18,43.12,-93.45
Iowa State University (Stable Run Disc Golf Course),18,42.04,-93.64
Iron Bridges,18,39.32,-95.81
Iron Hill,18,39.63,-75.76
Iron Mountain City Park,18,45.82,-88.09
Ironside Bluffs,18,34.22,-109.98
Ironside Disc Golf Course,18,37.76,-113.18
Ironwood Disc Golf,18,42.18,-77.06
Ironworks Hills Disc Golf Course,18,37.98,-84.10
Iroquois Park,18,38.16,-85.78
Irving Park,18,42.33,-85.18
Island Disc Golf Course at The Lodge,18,36.61,-96.31
IUP College Lodge,18,40.63,-79.18
Ivan K. Hill Disc Golf Course,18,33.94,-87.81
Iwen Park North Disc Golf Course,18,46.80,-96.80
J. Frank Wilson Memorial Park,18,36.69,-79.86
A. J. Jolly Park,18,38.89,-84.37
Jack Brooks Park - Cedar Hills,18,29.33,-95.05
Jack Brooks Park - Gulf Meadows,18,29.37,-95.04
Jack Crawford Memorial Disc Golf Course,18,47.68,-116.78
Jack Culverhouse Disc Golf Course,18,33.18,-96.51
Jack Lake Disc Golf,21,45.33,-89.10
Jack McLean Park,24,30.41,-84.27
Jackson Community College,18,42.16,-84.40
Jackson County Rec Center Disc Golf Course,18,35.29,-83.18
Jackson Hole Mountain Resort Disc Golf Course,18,43.59,-110.83
Jackson Park,18,35.32,-82.45
Jackson Park - 18,18,39.54,-95.12
Jackson Park Disc Golf Course,18,41.78,-87.58
Jackson Park,18,44.07,-103.27
Jackson Recreational Park Disc Golf Course,18,40.37,-76.32
Jackson's Mill Disc Golf Course,18,39.10,-80.47
Jacob Fork Park,18,35.63,-81.31
Jacobson Park Disc Golf Course,18,37.98,-84.43
Jaggerbush Hollow,18,35.51,-93.40
The JAM (John Andrews Memorial),18,33.01,-85.10
Jamboree Disc Golf at Camp Sekani,18,47.69,-117.31
James Island County Park,18,32.74,-79.99
James L. Whitten Center,18,34.29,-88.42
James Lawless Park,18,46.27,-119.29
James Rooney Memorial Park,20,30.88,-102.87
Jamestown Reservoir Disc Golf Course,24,46.95,-98.71
Jamesville Beach,18,42.97,-76.07
The Jaranator,22,32.55,-96.77
Jared Hilton Memorial Disc Golf Course,18,37.71,-92.67
Jason Wintz Memorial Disc Golf Course,18,38.39,-82.30
Jay Peak Disc Golf Course,18,44.94,-72.50
Jay Reynolds Park,18,35.45,-94.79
Cole County Park Disc Golf Course,18,38.56,-92.27
Jaycee Park Quarry,20,43.78,-87.74
Jaycee Park,18,42.86,-85.64
JB Hunt Park - Main,18,36.20,-94.16
J&B Rolling Hills South,18,35.47,-88.49
Jefferson Barracks Historical Park - Original,18,38.52,-90.28
Jenda Jones Memorial Disc Golf,18,46.05,-118.40
Jenkins Mountain Disc Golf,18,38.69,-78.19
Jenkins Park Disc Golf,18,29.77,-94.94
Jeremy Lewis Memorial Disc Golf Course at Deer Creek State Park,18,39.64,-83.24
Jericho Lake,18,41.74,-88.38
Camp Taloali Disc Golf Course,18,44.80,-122.73
Jesse James Disc Golf Course,18,39.40,-94.37
The Jet Stream Disc Golf Course at Snyder Park,18,26.08,-80.15
Jim Barnett Park Disc Golf Course,18,39.18,-78.15
Jim Warner Memorial Disc Golf Course,18,33.65,-82.29
Jimmy Porter Park,18,32.97,-96.89
JM Buck Championship Disc Golf Course,18,36.76,-91.84
Jo Clark Siegert Disc Golf Course,18,39.38,-89.08
Joe Eakes Park at Kure Beach,18,34.00,-77.91
Joe Palaia Park Disc Golf Course,19,40.27,-74.03
Joe Wheeler State Park,18,34.81,-87.33
Joe's Disc Golf Course,18,36.88,-93.16
John Hunt Park,18,34.69,-86.59
John Lemaster Memorial Disc Golf Course,18,33.63,-86.60
Hometown Hollow at Ryan Memorial Park,18,40.82,-75.97
Johnny Roberts Disc Golf Course,18,39.80,-105.09
Johns Park,18,35.22,-96.67
Johnson UMC Disc Golf Course,18,41.00,-81.64
Johnson Hills Park,18,39.11,-84.33
Johnson Park,18,35.66,-101.40
Johnson Park,18,32.61,-99.68
Johnson Park,18,42.77,-87.85
Johnson Park,18,42.92,-85.77
Johnson Road Park,18,35.07,-89.75
Johnson State College Disc Golf Course,18,44.64,-72.67
Johnson Street Park,18,36.02,-80.01
Johnson Township Community Park,18,38.20,-87.56
Jolley's Ranch Campground,18,40.17,-111.49
Jones Creek Ranch Park,18,29.64,-95.83
Jones Park,18,33.27,-97.58
Jones Park,18,41.95,-91.65
Jonesville Park,18,29.68,-82.49
Joralemon Park DIsc Golf Course - North,18,42.47,-73.87
Joralemon Park Disc Golf Course - South,18,42.47,-73.86
Jordan Creek Park,18,40.62,-75.50
Joseph C. Miller Disc Golf Course,18,38.59,-92.30
Joseph Davis State Park,27,43.21,-79.04
Joshua Park,18,41.77,-89.73
Joshua W. Franklin Disc Golf Course,18,31.62,-84.14
J.P. Moseley Park,27,33.53,-84.16
J.T. Dunbar Park,18,29.05,-95.46
Judson Mine Disc Golf Course,18,47.49,-92.78
Juel Park,18,47.70,-122.09
Jumanji,30,47.75,-117.62
Jumonville Camp & Retreat Center,18,39.88,-79.65
Kimble County Park,18,30.49,-99.76
Disc Golf at the Junction Golf Course,18,30.47,-99.76
The Jungle at Sanford Lake Park,18,43.68,-84.38
Juniper Valley Farm,18,37.21,-93.00
Jury Farms,18,35.31,-97.46
Justin Trails Big Brother Disc Golf Course,18,43.85,-90.84
Justin Trails Classic Disc Golf Course,18,43.85,-90.84
K-State Manhattan,18,39.19,-96.58
K-Town,18,39.25,-94.52
Kadena Air Base,20,26.34,127.78
Kahului Community Center Park,18,20.88,-156.48
Kaiser Family Disc Golf Course at Silver Bay YMCA,18,43.69,-73.51
Kanab Disc Golf,18,37.01,-112.52
Kanza Park,18,38.60,-95.27
Kanza View Disc Golf Course,18,38.69,-96.49
Kaposia Park,26,44.91,-93.06
Karel Park,18,37.83,-88.50
Karohl Park Disc Golf Course,18,39.74,-84.04
Karst Farm Park,18,39.14,-86.60
Katherine Legge Memorial Park,18,41.78,-87.91
Kayak Point - Blue,18,48.14,-122.34
Kayak Point - Gold,18,48.13,-122.37
Kayak Point - Pitch and Putt,18,48.14,-122.34
Kayak Point - Red,18,48.13,-122.37
KCC Kinston Open,18,35.28,-77.60
Kearney Park,18,36.73,-119.91
Keaton Coyle Memorial Disc Golf Course,18,35.98,-94.32
Keeley Park,18,36.11,-79.71
Kees Park,18,31.33,-92.41
Keizer Rapids Disc Golf Course,18,45.00,-123.06
Kelley Park Disc Golf Course,18,37.32,-121.86
Kelley Park,18,40.21,-100.62
Kellogg Lake Disc Golf,18,37.19,-94.29
Kelly Ridge Golf Course,18,39.53,-121.47
Ken Malloy Harbor Regional Park,18,33.78,-118.29
Kenai Eagle Disc Golf Course,18,60.56,-151.20
Kendall Indian Hammocks Park (East),18,25.70,-80.37
Kendall Indian Hammocks Park (West),18,25.70,-80.37
Keney Park,18,41.79,-72.70
Kenilworth Park,18,40.23,-75.63
Kennel Lake,18,40.64,-89.42
Kenney Park,18,41.46,-85.60
Kensington Black Locust - Green,18,42.53,-83.64
Kent State University,18,41.14,-81.34
Kentwood,18,35.78,-78.70
Kenwood Heritage Park,24,44.24,-85.44
Kenwood Trails Disc Golf Course,18,44.67,-93.27
Kereiakes Park,18,36.99,-86.42
Kern River Golf Course,18,35.43,-118.86
Kerr Park,18,40.01,-75.70
Kerr Station Park,18,34.95,-92.02
Kess Creek Park Disc Golf,18,36.72,-88.64
Kessler Park (Cliff Drive),18,39.11,-94.55
Keyes Peak Disc Golf,22,45.90,-88.30
Kiekhaefer Park Disc Golf Course,18,43.84,-88.37
Kilborne TPC,18,35.22,-80.77
Killens Pond State Park,18,38.99,-75.55
Kincaid Park Disc Golf Course,18,61.15,-150.05
Kinder Farm Park,18,39.10,-76.58
Kineowatha Park,18,44.59,-70.24
Kings River Disc Golf Course,18,36.50,-119.51
Kingsley Civic Center South,18,44.58,-85.54
Kinslow Disc Golf Course,18,40.25,-82.86
Kirkwood Mountain Resort,18,38.68,-120.07
Kirtland Community College,18,44.49,-84.41
Kitsap Fairgrounds,18,47.63,-122.67
Kiwanis Disc Golf at Berkeley Park,18,35.37,-77.94
Kiwanis Disc Golf Course,18,38.14,-79.09
Kiwanis Disc Golf at Persimmon Ridge Park,18,36.29,-82.50
Kiwanis Disc Golf at Twining Park,18,42.61,-89.64
Kiwanis Park,18,37.02,-94.73
Kiwanis Park Disc Golf Course,18,40.94,-90.34
Kiwanis/Rotary Park,18,38.76,-88.05
KJ Memorial Park,18,36.26,-94.17
Klaus Park,18,46.90,-98.72
Klein Park Disc Golf,18,30.14,-94.19
Klines Run Disc Golf Course,18,39.98,-76.50
Knebler Pond,18,37.08,-97.02
Knob Hill Park,18,40.66,-80.11
Knoch Knolls Park,18,41.71,-88.14
Knollwood Park,18,42.28,-85.62
K.O. at Lake Casitas,20,34.42,-119.34
Mendocino Redwoods RV Resort,18,39.41,-123.38
Kohala Winds Disc Golf Course,18,20.24,-155.80
Konarcik Park,18,38.34,-90.15
Kooky Noosa at Libby Dam,18,48.41,-115.32
Kraken Disc Golf at Hyco Lake Park,18,36.47,-79.12
Krape Park,18,42.28,-89.66
Kress Creek Farms Disc Golf Course,18,41.86,-88.21
Krizek Park,18,38.74,-98.23
Kronshage Park,18,43.13,-90.71
Krouskop Park,18,43.35,-90.39
Kudzu Cove Disc Golf Course,18,34.41,-86.25
Kuna Disc Golf Course,18,43.49,-116.41
Kutter Park,18,38.90,-90.08
La Cote Disc Golf Course,18,30.51,-93.23
La Mirada Regional Park - Back 18,18,33.91,-118.01
La Mirada Regional Park - Lake 18,18,33.90,-118.00
La Vista Park,18,38.94,-90.24
LaBenite DGC,18,39.16,-94.39
Ladera Golf Course,18,35.12,-106.71
Ladera,18,35.11,-106.72
Lady in Blue Disc Golf Course at McCourtie Park,18,42.05,-84.41
Lafreniere Park,24,30.00,-90.21
Lagoon Park Disc Golf Course,18,32.32,-86.22
Lagoon Valley Disc Golf Course,27,38.33,-122.01
Laguna Lake,18,35.26,-120.68
Lake Alliance,18,42.62,-84.75
Lake Amador Campground,18,38.30,-120.89
Lake Amador North,18,38.31,-120.89
Lake Amador South,18,38.30,-120.89
Lake Arrowhead State Park,18,33.76,-98.40
Lake Arvesta Farms,18,42.40,-86.19
Lake Atwood Disc Golf Course,18,39.81,-101.05
Lake Aurora Christian Camp,18,27.88,-81.47
Lake Bistineau State Park,18,32.44,-93.39
Cachuma Lake Disc Golf Course,18,34.58,-119.96
Lake Chabot Disc Golf Course - Bay,18,37.74,-122.12
Lake Chabot Disc Golf Course - Hills,18,37.74,-122.12
Lake Claiborne State Park - Dogwood Course,18,32.73,-92.92
Lake Claiborne State Park - Whitetail Course,18,32.73,-92.92
Lake Cumberland State Resort Park,18,36.93,-85.04
Lake D'Arbonne State Park Disc Golf Course,18,32.78,-92.49
Lake Dillon Disc Golf Course,18,39.61,-106.02
Craig Parker Memorial Disc Golf Course,18,34.08,-96.40
Lake Elk City Disc Golf,18,35.37,-99.41
Lake Ellis Disc Golf Course,18,31.46,-88.23
Lake Eureka Disc Golf Course,18,40.70,-89.28
Lake Fenwick Disc Golf Course,18,47.37,-122.28
Lake Fisher Disc Golf Course,18,40.76,-92.44
Lake Hastings,18,40.61,-98.40
Lake Havasu Golf Club East,18,34.47,-114.31
Lake Holiday,18,39.31,-78.33
Lake Icaria,18,41.05,-94.74
Lake Iowa Disc Golf Course,18,41.64,-92.18
Lake Julian Disc Golf Course,18,35.48,-82.54
Lake Leota Park,18,42.77,-89.28
Old Man McCutcheon Disc Golf Park,18,33.08,-97.01
Lake Lincoln State Park,18,31.68,-90.34
Lake Loramie State Park,18,40.37,-84.36
Lake Lowndes State Park,20,33.43,-88.30
Lake Lure Temporary Course,27,35.42,-82.19
Lake Marshall - The Lions,18,38.06,-76.73
Lake McMurtry North,18,36.18,-97.17
Lake McMurtry South,18,36.18,-97.17
Lake Mendocino (North),18,39.24,-123.18
Lake Mendocino (South),18,39.20,-123.18
Lake Meriwether Park,18,32.97,-84.61
Lake Montebello Disc Golf Course,18,39.33,-76.59
Lake Nacogdoches West Disc Golf,18,31.59,-94.84
Lake Orient Recreation Area,18,41.20,-94.43
Lake Point Park,18,33.65,-85.60
Lake Ponca - Bois D'Arc,18,36.73,-97.02
Lake Ponca - Lake Course,18,36.72,-97.02
Lake Russell State Park,27,34.18,-82.76
Lake Selmac,18,42.26,-123.57
Lake Shawnee,18,39.01,-95.62
Lake Shore Disc Golf Course,18,38.82,-94.30
Lake Shore Park,18,41.91,-80.78
Lake Showme Disc Golf Course,18,40.44,-92.22
Lake Springfield Disc Golf Course,18,37.12,-93.25
Lake Stevens Disc Golf Course,20,48.02,-122.06
Lake Superior View Disc Golf Course,18,46.68,-90.91
Sand Ridge Disc Golf at Lake Township Park,18,41.93,-86.54
Lake Walcott State Park,21,42.67,-113.48
Lake Wauburg,18,29.52,-82.30
Lake Wichita Park,18,33.84,-98.56
Lake Wilson,18,35.79,-77.92
The LakeHawk at Lake Sumter State College,18,28.83,-81.79
Laker Links,18,43.13,-94.69
Lake's Edge,18,36.29,-79.68
Lakeshore Disc Golf,18,43.12,-86.22
Lakeside Disc Golf Course,18,32.19,-110.82
Lakeside Disc Golf Course,18,34.63,-97.39
Lakeside Disc Golf at Veterans Memorial Park,18,34.81,-87.63
Lakeside DiscGolfPark,18,40.37,-76.29
Lakeside Hills Birdland,18,38.87,-94.87
Lakeside Landing Disc Golf Course,18,33.44,-88.86
Lakeside Lodge,18,42.90,-109.82
Lakeside Park,18,32.75,-94.50
Lakeside Park Disc Golf Course,18,37.15,-94.55
Lakeside Park,18,38.37,-97.65
Lakeview Church of God,18,41.36,-81.76
Lakeview Country Club,18,33.28,-87.14
Lakeview Disc Golf Course,18,42.85,-97.48
Lakeview at Indian Creek Camp,18,36.05,-85.86
Lakeview Park,18,27.29,-82.43
Lakeview Disc Golf Course,18,37.65,-95.46
Lakewood Dry Gulch,21,39.74,-105.03
Lakewood Hills,18,45.04,-93.01
Ralph Williamson Memorial Disc Golf Course,20,47.51,-122.34
Lakewood Park Regional Park,18,27.54,-80.41
Lakewood Park,18,38.84,-97.59
LaMoine Christian Service Camp,18,40.43,-90.97
Land of Memories Campground,18,44.16,-94.04
The Land,18,42.27,-78.93
Lander Ridge Disc Golf Course,18,42.82,-108.73
Lander University Disc Golf Course,18,34.20,-82.17
Landis Park,18,39.49,-75.02
Landreth Park Disc Golf Course,18,37.10,-94.51
Langan Municipal Park,19,30.71,-88.16
Langley Pond DiscGolfPark,18,33.52,-81.85
Lapping Memorial Park,18,38.34,-85.77
Larson Park,20,44.30,-96.77
Las Animas Bent County Disc Golf Course,18,38.08,-103.22
Las Vegas Ski & Snowboard Resort,18,36.30,-115.68
Laserdome Mini Disc Golf Course,18,40.12,-76.45
Latimer Lakes - North,18,34.94,-90.04
Latimer Lakes - South,20,34.94,-90.04
Laurel Football Field Disc Golf Course,18,42.43,-97.09
Laurel Pond Disc Golf Course,18,40.03,-74.40
Laurelain Disc Golf Course,18,40.39,-75.95
Laurens County Park,18,34.50,-81.95
Lava Creek Disc Golf,18,39.74,-121.61
Lavalinks,18,19.51,-155.11
Lawrence Park,18,48.21,-114.31
Devil's Creek Disc Golf at Lawrence Tech University,18,42.47,-83.25
Lawson Adventure Park,18,39.76,-105.64
Lawson Lake,18,39.46,-94.20
Lazarre Disc Golf Course,21,32.48,-92.12
Lazarre Highwater,18,32.48,-92.12
Le Tulle Park,18,28.98,-96.01
Canyon Course at Leaning Rock,18,41.17,-104.07
Eureka Temp,18,40.71,-89.28
Lee Fong Park Disc Golf Course,18,40.73,-122.94
Leeman Field Disc Golf Course,18,36.77,-83.03
Lefleurs Bluff State Park,18,32.33,-90.15
Leflore Horseman Training Ground,18,34.95,-94.64
Legacy Park Disc Golf Course,18,34.05,-84.63
Legacy Park,18,38.94,-94.31
The Legend at Sleepy Hollow State Park,18,42.93,-84.41
Legion Park Disc Golf Course,18,47.25,-93.54
Legion Park,19,42.03,-91.61
Lehigh Valley Sportsfest Disc Golf Course,18,40.59,-75.51
Leigh Farm Park,18,35.92,-78.98
Leila Arboretum,18,42.34,-85.21
Leinenkugel's Disc Golf Course at Casper Park,18,44.92,-91.41
Leistikow Park Disc Golf Course,18,48.42,-97.42
Lemon Lake County Park - Blue,18,41.38,-87.41
Lemon Lake County Park - Gold,18,41.38,-87.41
Lemon Lake County Park - Red,18,41.38,-87.41
Lemon Lake County Park - Silver,18,41.38,-87.41
Lemon Lake County Park - White,18,41.38,-87.41
Lemuria Disc Golf,18,41.59,-122.40
Lenni Lenape Park,18,40.37,-76.38
Lenora Park,18,33.79,-84.00
Leonard L. Woods Park,18,33.05,-97.04
Leonard Park,18,41.20,-73.72
Leprechaun Hollows,18,42.87,-86.19
Leroy Percy State Park,18,33.16,-90.94
Lester Lorch Park - Beaver Disc Golf Course,18,32.56,-96.99
Lester Lorch Park - Coyote Disc Golf Course,18,32.56,-96.99
Levelland City Park,21,33.59,-102.40
Leviathan,24,43.97,-86.42
Lewis Club Park,18,41.68,-93.23
Lewis Young Park Disc Golf Course,18,38.64,-94.69
Lewisburg Disc Golf Course,18,35.44,-86.78
Lewiston Disc Golf Club at Buttles Park,18,44.89,-84.31
Liberty Park Disc Golf Course,18,47.65,-117.39
Liberty Pines Disc Golf Course,18,39.02,-105.08
Liberty University Disc Golf - Camp Hydaway,20,37.33,-79.15
Liberty University Disc Golf - East,20,37.34,-79.18
Lighthouse Disc Golf Course at Como Lake,18,42.89,-78.66
Lime Bluff Recreation Area,18,41.23,-76.75
Lincoln Disc Golf Course,18,39.04,-98.14
Lincoln Drive - The Loop,21,47.91,-97.02
Lincoln Drive Park - Original,18,47.91,-97.02
Lincoln Homestead State Park,18,37.76,-85.21
Lincoln Lake,18,43.24,-85.35
Lincoln Park,24,42.55,-84.84
Lincoln Park,18,48.11,-123.48
Lincoln Park,18,42.57,-87.84
Lincoln Park,18,49.00,-122.73
Lincoln Park - North,18,39.83,-89.65
Lincoln Park - South,18,39.83,-89.65
Lincoln Ridge/Banklick Woods Park,24,38.97,-84.56
Linda Vista Disc Golf Course,18,46.82,-114.06
Linden Disc Golf Course,18,33.01,-94.35
Lindsey Park - Blue Hickory,18,32.31,-95.38
Lindsey Park - Gold Dogwood,18,32.31,-95.37
Lindsey Park - Red Cedar,18,32.31,-95.38
Linear Park,18,37.66,-97.57
Linesville Park,18,41.06,-75.77
Lighthouse Disc Golf Course at Lake Cunningham,18,41.34,-96.05
The Links of Springfield,18,44.24,-94.98
The Links at Wheeler Park,18,41.89,-88.30
Lionel E. Forti Park Disc Golf Course,18,31.76,-106.36
Lions Club Disc Golf Course,18,37.93,-91.78
Lions Club Park,24,40.17,-85.49
Lion's Den Disc Golf Course,18,38.98,-105.36
Lions Den,18,34.04,-78.86
Lion's Park,21,31.06,-97.40
Lions Park I,18,44.78,-93.54
Lions Wilderness Disc Golf Course,29,36.79,-108.12
Lippold Park,18,42.24,-88.36
Little America Disc Golf Course,18,41.12,-104.86
Little America Long,18,35.19,-111.62
Little Creek Park,18,38.34,-81.73
Little Egypt Disc Golf at John Burge Park,18,30.38,-95.52
Little Lehigh Parkway,18,40.58,-75.48
Little Mulberry Park,18,34.05,-83.89
Litz Park,18,37.39,-89.65
Live Oak City Park - South,18,29.54,-98.33
Live Oak Gold,18,27.86,-97.22
Live Oak City Park - Hillside,19,29.55,-98.33
Live Oak Landing,18,30.96,-87.87
Live Oak Park,18,33.85,-80.37
Live Oak Red,18,27.85,-97.21
Living Memorial Park,18,42.85,-72.59
Living Waters Disc Golf Course at New Creations,18,39.84,-84.81
Livingston Country Club,18,45.66,-110.55
Lizard Peak Disc Golf - Main Course,27,39.61,-119.79
L.L. Stub Stewart State Park - Main,18,45.74,-123.20
LLC Disc Golf Course,18,43.40,-95.13
Lobdell Reserve Disc Golf Course,18,40.10,-82.60
Locklear Park at Naval Weapons Station,18,32.97,-79.99
Locks Approach Disc Golf Course,18,45.68,-121.85
The Lodge Disc Golf Course,18,41.43,-85.72
Log Cabin Course,18,34.30,-85.19
Log Lake Park,18,44.75,-85.15
Logan High School,18,39.52,-82.38
Logan University Disc Golf Course,18,38.63,-90.54
Long Glade - Blue,18,44.24,-119.11
Long Glade - Yellow,18,44.24,-119.11
Long Trout Winery,18,40.61,-76.07
Longley Park,18,40.03,-86.46
Longview Disc Golf Course,18,39.19,-95.44
Longview Park,18,41.49,-90.58
Longwood University Disc Golf Course,18,37.29,-78.38
Loon Peak Disc Golf,18,44.06,-71.63
Loretto Disc Golf Park,18,35.07,-87.46
Loriella Park,18,38.25,-77.54
Lost Indian Spring Disc Golf Course,18,34.77,-90.12
Lost Lake Disc Golf Course,18,39.20,-120.98
Lost River State Park,18,38.90,-78.92
Lost Woods Disc Golf Course,18,36.56,-92.64
Lost Woods at Pooler Recreation Complex,18,32.13,-81.26
Loudon Municipal Park,18,35.73,-84.38
Louisiana Healthcare Connections DiscGolfPark,18,30.51,-91.15
Lovers Lane Park,18,36.97,-86.40
Lovington Disc Golf Course,18,32.94,-103.34
Low Gap Park,18,39.16,-123.23
Lowcountry Disc Golf Course,20,32.68,-80.03
Lower Cato Falls Disc Golf Course,18,44.09,-87.84
Limestone Ledges Disc Golf Complex - Lower Forest,18,38.94,-78.45
Loxley Municipal Disc Golf Course,18,30.63,-87.76
LTC Cleveland,18,43.92,-87.76
Lubbock Christian University,18,33.57,-101.94
Lucas Pond Disc Golf Course,18,33.12,-91.97
Lucky 8,18,38.32,-82.45
Lucky Mud Disc Golf Course - Raven,21,46.30,-123.35
Lucy Park,18,33.92,-98.52
Lumberjack Meadows Disc Golf Course,18,45.08,-83.44
Lumberton Disc Golf Course,18,30.23,-94.23
Lums Pond State Park,18,39.56,-75.71
Lustig Park,18,42.67,-89.04
Luther Britt Park,18,34.63,-79.03
Lydgate Disc Golf Course,18,22.04,-159.34
Lydle Gulch - Blue,20,43.52,-116.06
Lydle Gulch - Gold,20,43.52,-116.06
Lyndon State College Disc Golf,18,44.54,-72.02
Lynn-Hunkler Memorial Park DGC,18,40.07,-81.06
Lynwood Forrest,18,37.50,-75.83
The Lynx Disc Golf Course,18,31.59,-89.20
The Lyon's Den,18,42.52,-83.63
Lyons High School,18,38.33,-98.20
The LZ Disc Golf Course,18,31.35,-85.87
Paw Paw Park,18,42.80,-86.05
MacGregor Park,21,29.71,-95.34
MacIntyre Park Disc Golf Course - Recreational 18,18,30.85,-83.97
Mackenzie Park - Big Mack Disc Golf Course,18,33.59,-101.83
Mackenzie Park - Original,18,33.59,-101.83
MacKenzie State Park,18,19.44,-154.86
Macon Early College Disc Golf Course (Old Siler Farm),18,35.16,-83.38
Maconaquah Park,18,40.74,-86.06
Mad Mountain Adventure Disc Golf,18,44.09,-69.91
Madeline Bertrand County Park,18,41.76,-86.27
Madison Meadow Park,19,41.87,-88.00
Madison Park,18,43.10,-88.03
Madisonville City Park Disc Golf Course,18,37.32,-87.48
Madman's Disc Golf Course,18,45.09,-90.50
Mae Simmons Park Disc Golf,18,33.58,-101.83
Magic Mountain National Disc Golf Course,18,43.20,-72.77
Magic Mountain Disc Golf Course,18,42.19,-114.28
Magnolia Links,18,33.63,-86.87
Magnolia Park,18,30.14,-91.82
Magnolia's First Disc Golf Course,18,30.21,-95.75
Mahr Park Championship Course,18,37.35,-87.51
Mahr's Meadow DGP,18,44.96,-90.95
Maiden Shade,21,44.23,-93.46
Majestic Enchantment Disc Golf Course,18,36.75,-107.77
Makoshika State Park Recreational Course,18,47.08,-104.70
Makoshika State Park - Upper,18,47.09,-104.71
Malabar Disc Golf,18,28.00,-80.58
Malad City,18,42.18,-112.25
Mallard Park Disc Golf Course,18,43.59,-116.69
Veterans Golfplex,18,35.08,-89.99
Manchester Beach KOA,18,38.98,-123.69
Maple Grove Disc Golf Park,18,44.33,-85.21
Maple Hill,18,42.28,-71.90
Maple Ridge Disc Golf,18,46.58,-67.92
The Maples at Okemo,18,43.42,-72.71
Maranatha Bible Camp,18,37.28,-93.73
Margreth Riemer Reservoir,18,42.11,-88.06
Mahr Park Recreational Course,18,37.35,-87.51
Maricopa Meadows,27,33.05,-112.06
Marilla Park Disc Golf,18,41.15,-88.82
Fort Gordon Marine/Navy Disc Golf Course,20,33.42,-82.13
Marinette City Park,18,45.09,-87.64
Marion County Lake Disc Golf Course,18,38.31,-96.99
Marion Disc Golf Course,18,37.35,-88.06
Marion Township Disc Golf Course,18,42.54,-83.97
Mark of the Devil Disc Golf Course,20,38.38,-107.39
Markham Park,18,26.13,-80.35
Marlette Golf Course,18,43.34,-83.08
Marquette Park Disc Golf Course,18,41.62,-87.25
Mars Hill College Disc Golf Course,18,35.83,-82.55
Marshall Middle School,18,43.16,-89.07
Martin Family Disc Golf Course,18,35.94,-80.27
Marvel Universe,18,43.91,-84.01
Mary Beth Doyle Park,18,42.24,-83.72
Mary Jane Thurston State Park,18,41.41,-83.88
Mary Rutan Disc Golf Course,18,40.37,-83.75
Marysville Disc Golf Course,18,40.25,-83.39
Mason County Park - Beast,24,43.90,-86.44
Mason County Park - Beauty,24,43.90,-86.44
Mason County Park - Goliath,24,43.90,-86.44
Massacre Rocks State Park - Long,18,42.79,-112.85
Limestone Ledges Disc Golf Complex - Massanutten Monster,18,38.94,-78.45
Mastin Lake,18,34.77,-86.64
Mastodon Disc Golf Course at Purdue,18,41.12,-85.12
Matchett Park,18,39.09,-108.52
John Reid Memorial Disc Golf Course,18,33.82,-83.70
Matney Park,18,39.36,-104.80
Matter Park Disc Golf,24,40.58,-85.66
Max E. Roper Interstate Park - East,18,40.85,-96.71
Max E. Roper Interstate Park - West,18,40.85,-96.72
Max Starcke Disc Golf Course,18,29.56,-97.97
Maxwell Park Disc Golf Course,18,40.52,-89.02
May Dennis,18,37.65,-98.75
Mayflower Hills Disc Golf Course,18,37.24,-79.87
Mayhew Creek Park Disc Golf Course,18,45.61,-94.13
Mayo Clinic Health System Disc Golf Course,18,44.87,-91.90
Mayor's Park Disc Golf at McAlinden Park,18,39.65,-119.88
Mays Mill,18,37.38,-79.32
Maytag Park,18,41.69,-93.05
Glenville Lakes in Mazarick Park,18,35.07,-78.90
Glenville Pines in Mazarick Park,18,35.07,-78.91
McCarty Ranch Preserve Disc Golf Course,18,27.25,-80.52
McCauley Park,18,37.05,-93.28
McClelland Park,27,37.04,-94.54
McClure Park,18,36.15,-95.89
McCord Park,18,33.17,-96.89
McCormick Park,18,45.85,-122.82
McCulloch Disc Golf Course,18,40.21,-85.39
McCurdy Park,18,42.99,-84.12
McCurry Park,18,33.46,-84.42
McDade Park,18,30.32,-95.51
McFarland Park Disc Golf,18,34.79,-87.68
McGraft Park,18,43.21,-86.28
Magrath Sports Complex,18,44.06,-75.78
McHose Park,18,42.04,-93.89
McKenzie City Park Disc Golf Course,18,36.15,-88.51
McKinley Park,18,40.28,-100.16
McKinley Park,18,41.06,-94.38
McLouth Park,18,42.14,-83.20
McNaughton Park,18,40.59,-89.60
McPherson Park,18,35.21,-111.64
McWilliams Park,18,34.08,-82.83
Meade Olin Park,27,38.00,-86.16
Meadow Lake Park,18,35.90,-85.09
Meadow-Vale Campsites Disc Golf,18,42.61,-75.12
Meadowbrook Disc Golf Course,18,37.98,-84.51
Meadowbrook Disc Golf Course,18,41.13,-83.28
Meadowbrook Orchards,18,42.42,-71.72
Meadowlake Disc Golf Course,18,36.38,-97.89
The Meadows Disc Golf Park,18,41.59,-87.79
Meathouse Fork Disc Golf Course,18,39.27,-80.73
Calhoon M.E.B.A. Engineering School Course,18,38.77,-76.15
Meeks Park,18,34.87,-83.97
Meeman-Shelby State Park,36,35.32,-90.05
Megiddo Disc Golf Course,18,40.64,-89.48
Meier Lake Resort Disc Golf Course,18,61.65,-149.31
Mekusukey DGC,18,35.19,-96.70
Mellomar Golf Park,18,38.65,-76.68
Melvern Lake at Eisenhower State Park,18,38.63,-95.75
Memorial Hills Disc Golf,18,40.88,-85.51
Memorial Park,18,43.33,-83.73
Memorial Park,19,41.04,-92.40
Memorial Park,18,38.89,-98.84
Memorial Park,18,44.37,-98.19
Memorial Park,18,40.09,-80.88
Memorial Park,18,35.97,-96.77
Memory Lake,18,31.82,-99.44
Mena Lions Club Disc Golf Course,18,34.57,-94.25
Mendocino College Disc Golf Course,27,39.19,-123.23
Mendocino High School,18,39.31,-123.80
Mercer County Park,18,40.26,-74.65
Mercer/Grove City KOA,18,41.18,-80.19
Meridian Naval Air Station,18,32.55,-88.60
Mesker Park,18,38.00,-87.60
Mesker Woods,18,38.00,-87.61
Messiah College Disc Golf Course,18,40.16,-76.98
MetCenter Disc Golf Course,18,30.20,-97.71
Metzler County Park,9,45.23,-122.37
Meyer Broadway North,18,41.94,-85.68
Meyer Broadway Original,18,41.93,-85.67
Miami University Hamilton,18,39.38,-84.56
Miami University Oxford,18,39.51,-84.73
Michael Faklis Park,18,38.05,-121.38
Micke Grove Park,18,38.08,-121.27
Mid-South Community College,18,35.15,-90.22
Midd-West Disc Golf Course,18,40.79,-77.04
Middle Concho Disc Golf Course,18,31.38,-100.52
Middle Creek High School,18,35.67,-78.76
Middle Park Disc Golf Course,18,41.54,-90.50
Middletown Park,18,39.45,-77.53
Mike Miller County Park Disc Golf Course,18,36.94,-88.35
Mike Woods Park,18,32.48,-93.66
Milan Disc Golf Course,18,35.92,-88.73
Milby Park Disc Golf Course,21,29.70,-95.27
Mill Brook Disc Golf Course,18,39.56,-76.24
Mill Creek Metroparks Farm - Forest,18,41.01,-80.76
Mill Creek,18,43.05,-82.71
Mill Ridge Park,18,36.02,-86.62
Miller Park,18,43.18,-95.67
Miller Park - Lake Nyanza,18,41.73,-92.72
Milligan Park Disc Golf Course,22,40.03,-86.89
Millikin Mile,18,39.41,-84.59
Millpond County Park,18,37.38,-118.49
The Mills Experience,24,41.19,-85.47
MIllstone Plantation,18,30.56,-84.23
Millstream Park,18,45.57,-94.33
Millwood Creek Disc Golf Course,18,41.40,-71.99
Mine Kill Park,18,42.43,-74.46
The Preserve at Mineola Nature Preserve,18,32.64,-95.46
Mineral Area College Disc Golf Course,18,37.84,-90.48
Miner's Point Disc Golf Course,18,40.80,-123.06
Mini Disc Golf Course at Mushroom Manor,18,40.03,-76.35
Miniwaukan Park,18,42.86,-88.32
Mint Ridge,18,36.36,-81.27
Missile Ridge Disc Golf Course,18,41.38,-87.44
Mission Bay Golf Course,18,32.80,-117.22
Mississinewa State Park,24,40.70,-85.95
Mississippi Park Disc Golf Course,18,41.54,-90.42
Mississippi River Park,18,45.72,-94.23
Mississippi State Combined Disc Golf Course,19,33.36,-89.34
Missouri Western,18,39.76,-94.79
Moccasin Bend Disc Golf at Roosevelt State Park,18,32.32,-89.67
Moccasin Creek Disc Golf Course,26,29.77,-81.45
Moccasin Creek at The Lodge,18,36.59,-96.31
Papago Disc Golf Course at Moeur Park,18,33.44,-111.94
Mohawk Disc Golf Course at Cachuma Lake,18,34.57,-119.95
Mohegan Park Disc Golf,36,41.55,-72.07
Mohonk Mountain House,18,41.78,-74.13
Mojave Greens,18,34.92,-117.90
Mojave Narrows Disc Golf Course,18,34.51,-117.27
Mollie Joyce Park Disc Golf Course,18,38.43,-120.59
Monarch Bay,18,37.70,-122.19
Moneta Disc Golf Course,18,37.21,-79.61
Monroe Community College Disc Golf Course,18,43.10,-77.60
Monroe Community Park,24,39.44,-84.36
The Monster at Fighting Creek,18,37.55,-77.93
Mont du Lac - Eagles Peak,24,46.65,-92.28
Mont du Lac - White Cedar,19,46.65,-92.29
Montcalm Community College,18,43.25,-85.10
Monte Bella Disc Golf Course,21,25.96,-97.54
Monte Sano State Park,18,34.75,-86.51
Montezuma Disc Golf Course,18,41.59,-92.53
Montissippi Regional Park,18,45.32,-93.83
The Monty,18,33.32,-83.72
The Moo at Timken Community Center,18,35.02,-81.81
Moody's Disc Golf Ranch - Fire on the Mountain,18,29.95,-97.37
Moody's,36,29.95,-97.37
Moon Lake Disc Golf Course,18,39.07,-96.80
Moon Mountain,18,33.37,-105.65
Moonlight Meadows,18,28.60,-82.33
Moore Township Disc Golf Course,18,40.77,-75.41
Moorman Park,18,39.95,-91.35
Moose Mountain Recreation,18,43.54,-71.09
The Moose Pretzel,18,59.71,-151.42
Moraine Rotary Disc Golf Course,18,39.70,-84.26
Moraine State Park Disc Golf Course,18,40.96,-80.11
Morgan Sports Center,18,30.39,-86.46
Morley Field,19,32.74,-117.14
Morningside Park,18,35.97,-83.90
Morris Frank Disc Golf Course,18,31.35,-94.75
Morristown Kiwanis Disc Golf Course at Wayne Hansard Park,18,36.17,-83.38
Morse Park North,18,36.88,-94.37
Moser Park,18,41.07,-85.02
Mossy Bluff Disc Golf Course,18,35.52,-92.00
Mossy Pines at Battle Ridge Campground,18,45.88,-110.88
Mossy Roc Disc Golf Course,18,48.74,-122.40
Mott Park,18,43.01,-83.72
Mount Shasta Ski Park - Douglas Butte,18,41.32,-122.20
Mount Sunapee Resort,18,43.34,-72.07
Mountain Cove Farms Resort,18,34.64,-85.46
Mountain Crest,18,36.25,-115.28
Mountain Meadow Disc Golf Course,18,38.82,-122.72
Mountain Meadow Ranch,18,34.33,-111.01
Mountain Pride Disc Golf,18,33.58,-117.22
Mountain View Adventure Park,18,38.74,-105.20
Bluegrass Trails Disc Golf Course,18,35.88,-92.12
Mountaineer Disc Golf Course,18,38.77,-81.34
Mountaineer Disc Golf Course,18,38.55,-106.92
Mountainside Disc Golf at Flynt Park,18,42.10,-72.32
The Mountwood Monster,18,39.24,-81.29
MRAG Disc Golf Course,18,30.75,-88.19
MSU-Northern,20,48.54,-109.69
MSU Wise Center Disc Golf Course,18,33.45,-88.80
Mt. Airy Forest,18,39.17,-84.57
Mt. Bachelor Alpine Disc Golf Course,18,43.99,-121.69
Mt. Baldy Disc Golf Course,18,34.27,-117.62
Mt. Gilead Disc Golf Course,18,39.59,-86.32
Mt. Hood Ski Bowl,18,45.30,-121.76
Mt. McSauba Disc Golf Course,19,45.33,-85.25
Mt Vernon Nazarene University,18,40.37,-82.47
Mt. Waterman Disc Golf Course,18,34.35,-117.93
Muddy Run Disc Golf Course,18,39.85,-76.28
Mulbright Pines,18,39.35,-81.43
Muldoon Park Disc Golf Course,18,42.74,-71.35
Muldraugh Disc Golf Course,18,37.92,-85.99
Mulerider Disc Golf Course,18,33.29,-93.23
Mulligans Creekside Golf Center,18,41.27,-112.02
Munden Point,18,36.58,-76.04
Municipal Golf Course - Handeye Course (Muni Blue),18,38.32,-96.18
Municipal Golf Course - Physics of Flight Course (Muni Red),18,38.32,-96.18
Municipal Red Disc Golf Course,18,30.71,-88.16
Munson Park Disc Golf Course,18,33.78,-96.53
Murdock Park,18,40.42,-86.87
Muse Park,18,35.65,-88.81
Myles Kimmerly,18,44.85,-85.88
Myrtle Ridge Disc Golf Course,18,33.08,-83.26
Tortoise Run Disc Golf Course,18,26.69,-81.89
NAD Park,18,47.58,-122.69
Nancee H. Waibel Memorial Disc Golf Course,18,38.97,-92.75
Nancy Lane Park,18,35.44,-89.79
Nani Falcone Community Park,21,29.52,-98.64
Nantucket Disc Golf Course,18,41.26,-70.08
Raines Family Disc Golf Course,18,42.62,-77.39
Martha McLean Anza Narrows Park,18,33.97,-117.43
Nash Community College Disc Golf Course,18,35.98,-77.90
Nashville Disc Golf Course,18,33.95,-93.86
Nathaniel Cole Park,18,42.14,-75.71
National Peanut Festival,18,31.35,-85.55
Nations Tobin,18,31.87,-106.41
Natural Falls State Park,18,36.18,-94.67
Naval Hill Disc Golf Course,19,36.17,-86.74
Naval Surface Weapons Station,18,38.33,-77.04
Nawakwa Woods Disc Golf Course,18,39.97,-77.32
