Course,City,State/Province,Country,Postal Code,# Holes,Rating,Approximate_Lat,Approximate_Lon
Adventist DISCovery Park,Opelika,Alabama,United States,36804,3,0,32.534249,-85.347421
Agape Disc Golf Course,Scottsboro,Alabama,United States,35769,9,0,34.597984,-86.104809
Aggieland Disc Golf,Hamilton,Alabama,United States,35570,18,0,34.163750,-87.993165
Agricultural Heritage Park,Auburn,Alabama,United States,36830,9,0,32.538930,-85.492645
Arab City Park,Arab,Alabama,United States,35016,18,0,34.323870,-86.502006
Asbury UMC Disc Golf Course,Madison,Alabama,United States,35758,9,0,34.711417,-86.746510
Athens State University,Athens,Alabama,United States,35611,9,0,34.773833,-87.084145
Auburn University Montgomery (AUM),Montgomery,Alabama,United States,36117,22,0,32.378728,-86.145011
Baker High School,Mobile,Alabama,United States,36608,9,0,30.681503,-88.300213
Bowers Park,Tuscaloosa,Alabama,United States,35405,18,4,33.120607,-87.538904
Brahan Springs Park,Huntsville,Alabama,United States,35805,18,3.333335,34.709368,-86.620290
Brush Creek Park,Waterloo,Alabama,United States,35677,18,0,34.955707,-88.026555
Burnt Corn Creek Park,Brewton,Alabama,United States,36426,9,4,31.140984,-87.071111
Calhoun Huntsville Campus Disc Golf Course,Huntsville,Alabama,United States,35805,6,0,34.709368,-86.620290
Capital City Disc Golf Course,St. Stephens,Alabama,United States,36569,18,0,31.542478,-88.091294
Casture Pattle Disc Golf Course,Lanett,Alabama,United States,36863,18,4,32.889494,-85.263750
Chapman Pines Disc Golf Course,Huntsville,Alabama,United States,35811,18,0,34.795354,-86.509948
Chickasabogue County Park - New Ridge,Eight Mile,Alabama,United States,36613,18,0,30.809841,-88.187450
Chickasabogue County Park - Original,Eight Mile,Alabama,United States,36613,18,4.5,30.809841,-88.187450
Chickasaw Community Park,Chickasaw,Alabama,United States,36611,18,4.333335,30.769623,-88.080073
Choccolocco Park,Oxford,Alabama,United States,36203,18,0,33.583080,-85.834626
Citronelle Municipal Park,Citronelle,Alabama,United States,36522,18,5,31.090945,-88.275355
Clanton Disc Golf Course,Clanton,Alabama,United States,35045,18,0,32.799962,-86.676761
Clay Disc Golf Course,Clay,Alabama,United States,35126,21,0,33.730771,-86.655119
Cottage Hill Park,Mobile,Alabama,United States,36695,18,3,30.628385,-88.280303
Creola City Park,Creola,Alabama,United States,36525,18,0,30.890103,-88.018704
Daphne Central Park,Daphne,Alabama,United States,36526,18,5,30.611152,-87.859918
Diamond Disc Golf,Cottonwood,Alabama,United States,36320,9,0,31.049925,-85.319153
Disc Golf Kymulga,Childersburg,Alabama,United States,35044,18,0,33.243975,-86.380759
Drake Springs,Huntsville,Alabama,United States,35805,9,0,34.709368,-86.620290
Dublin Park,Madison,Alabama,United States,35758,9,2,34.711417,-86.746510
Elkahatchee State Park,Alexander City,Alabama,United States,35010,9,3,32.916719,-85.940589
Fairhope Municipal Park,Fairhope,Alabama,United States,36532,20,5,30.480713,-87.861306
Fairview Park Disc Golf Course,Fairview,Alabama,United States,35058,18,3,34.228856,-86.737261
Faith Church,Florence,Alabama,United States,35634,3,0,34.919270,-87.614548
Faulkner State Community College,Bay Minette,Alabama,United States,36507,18,0,30.858609,-87.742025
First Baptist Church of Robertsdale,Robertsdale,Alabama,United States,36567,9,0,30.623536,-87.556960
Flying Dragon Disc Golf Course,Decatur,Alabama,United States,35603,18,0,34.535452,-86.971226
Fort Rucker Flying Disc Golf Course,Fort Rucker,Alabama,United States,36362,18,5,31.350932,-85.679787
Freedom Hills Disc Golf Course,Red Bay,Alabama,United States,35582,9,0,34.486800,-88.112899
Gattman Park,Muscle Shoals,Alabama,United States,35661,9,0,34.768526,-87.562802
George Ward Park,Birmingham,Alabama,United States,35205,24,4,33.494995,-86.808077
Greenbrier Woods,Madison,Alabama,United States,35756,9,0,34.643700,-86.818151
Greg Carter Memorial Course,Russellville,Alabama,United States,35653,18,0,34.518191,-87.871965
Greg Carter Memorial Disc Golf Course,Trussville,Alabama,United States,35173,18,4,33.655407,-86.563109
H.A. Alexander Park,Moulton,Alabama,United States,35650,18,0,34.447233,-87.308593
Halawaka Park,Salem,Alabama,United States,36874,18,3,32.564252,-85.198549
Heritage Park,Cullman,Alabama,United States,35055,18,4.5,34.151121,-86.758808
Honda Park Disc Golf Course,Lincoln,Alabama,United States,35096,18,0,33.620336,-86.107668
Hurricane Alley Disc Golf Course,Irvington,Alabama,United States,36544,9,0,30.479701,-88.230089
Indian Creek Disc Golf Course,Huntsville,Alabama,United States,35806,20,3.75,34.760774,-86.685762
Inverness Disc Golf Park,Birmingham,Alabama,United States,35242,18,4,33.425247,-86.672084
Ivan K. Hill Disc Golf Course,Winfield,Alabama,United States,35594,18,5,33.932693,-87.774369
Jacksonville Community Disc Golf Course,Jacksonville,Alabama,United States,36265,9,1,33.847655,-85.784916
Joe Wheeler State Park,Rogersville,Alabama,United States,35652,18,0,34.846744,-87.310208
John Hunt Park,Huntsville,Alabama,United States,35802,18,1,34.668212,-86.558882
John Lemaster Memorial Disc Golf Course,Trussville,Alabama,United States,35173,18,5,33.655407,-86.563109
Kent Robertson Park,Huntsville,Alabama,United States,35802,6,0,34.668212,-86.558882
Kudzu Cove Disc Golf Course,Guntersville,Alabama,United States,35976,18,0,34.345767,-86.330025
Lake Ellis Disc Golf Course,Chatom,Alabama,United States,36518,18,0,31.459303,-88.284040
Lake Point Park,Heflin,Alabama,United States,36264,18,4,33.596783,-85.551483
Lakeside Disc Golf at Veterans Memorial Park,Florence,Alabama,United States,35630,18,5,34.822980,-87.661652
Lakeview Country Club,McCalla,Alabama,United States,35111,18,5,33.284352,-87.094878
Langan Municipal Park,Mobile,Alabama,United States,36608,19,3.5,30.681503,-88.300213
Lifepoint Disc Golf Course,Albertville,Alabama,United States,35950,9,0,34.249750,-86.261097
Live Oak Landing,Stockton,Alabama,United States,36579,18,0,31.106823,-87.796932
Magnolia Links,Mount Olive,Alabama,United States,35117,18,4,33.667778,-86.892599
Major Creek Crossing,Montgomery,Alabama,United States,36109,10,1,32.388957,-86.242148
Mastin Lake,Huntsville,Alabama,United States,35810,18,3.75,34.803193,-86.601445
McFarland Park Disc Golf,Florence,Alabama,United States,35630,18,4,34.822980,-87.661652
Mirabeau Apartments,Huntsville,Alabama,United States,35805,9,0,34.709368,-86.620290
Monte Sano State Park,Huntsville,Alabama,United States,35801,18,4,34.725269,-86.560866
MRAG Disc Golf Course,Mobile,Alabama,United States,36618,18,0,30.736902,-88.169796
Municipal Red Disc Golf Course,Mobile,Alabama,United States,36608,18,0,30.681503,-88.300213
New Hope City Park Disc Golf Course,New Hope,Alabama,United States,35760,18,0,34.543906,-86.383856
North Jasper Park,Jasper,Alabama,United States,35503,18,0,33.936479,-87.305113
Ol' Colony Disc Golf Course,Tuscaloosa,Alabama,United States,35406,18,0,33.338867,-87.469325
Oliver Park Disc Golf Course,Calera,Alabama,United States,35040,18,0,33.102967,-86.728894
Oscar Johnson Park,Silverhill,Alabama,United States,36576,5,0,30.522953,-87.763833
Osprey Disc Golf Course,Orange Beach,Alabama,United States,36561,9,3,30.288702,-87.571504
Palmore Park,Tuscaloosa,Alabama,United States,35401,18,0,33.170238,-87.616169
Pecan Hollow at Graham Creek Nature Preserve,Foley,Alabama,United States,36542,18,5,30.269654,-87.750627
Quail Creek One Disc Golf Course,Hartselle,Alabama,United States,35640,18,0,34.440702,-86.943677
Rainbow City Disc Golf Course,Rainbow City,Alabama,United States,35906,18,4,33.927149,-86.095113
Redstone Arsenal,Huntsville,Alabama,United States,35808,21,4,34.633027,-86.659057
Revelation Mountain,Pell City,Alabama,United States,35125,18,0,33.633384,-86.288692
Semmes Middle School,Semmes,Alabama,United States,36575,9,0,30.769164,-88.273387
Shocco Springs,Talladega,Alabama,United States,35160,9,0,33.356656,-86.052297
Smiths Station Disc Golf Course,Smiths Station,Alabama,United States,36877,18,0,32.573153,-85.101369
Southside Park,Huntsville,Alabama,United States,35803,18,0,34.563461,-86.519399
Sparkman Park - Lakeside,Hartselle,Alabama,United States,35640,18,0,34.440702,-86.943677
Sparkman Park - Original,Hartselle,Alabama,United States,35640,18,2,34.440702,-86.943677
Sportsplex,Athens,Alabama,United States,35611,19,4,34.773833,-87.084145
Spring Hill College Disc Golf Course,Mobile,Alabama,United States,36608,18,0,30.681503,-88.300213
Spring Street Disc Golf Course,Adamsville,Alabama,United States,35005,9,0,33.595950,-87.000649
Springhill Hobbit Disc Golf Course,Mobile,Alabama,United States,36607,18,1,30.698560,-88.105760
Stapleton School Disc Golf Course,Stapleton,Alabama,United States,36578,9,0,30.749286,-87.779057
Steele Creek,Satsuma,Alabama,United States,36572,9,0,30.857722,-88.061419
Taylor Disc Golf Course,Taylor,Alabama,United States,36301,9,0,31.140065,-85.398289
The Admiral,Semmes,Alabama,United States,36575,18,0,30.769164,-88.273387
The Eagle Disc Golf Course,Jasper,Alabama,United States,35504,18,0,33.894135,-87.170812
The Oaks at Eastgate Park,Ashford,Alabama,United States,36312,18,0,31.170833,-85.236826
The Outback at Central Park Baptist,Decatur,Alabama,United States,35601,9,0,34.608016,-87.011052
The Prairie at Graham Creek Nature Preserve,Foley,Alabama,United States,36535,18,5,30.383999,-87.727359
The Preserve at Graham Creek Nature Preserve,Foley,Alabama,United States,36535,18,5,30.383999,-87.727359
The Ridge,Springville,Alabama,United States,35146,18,0,33.795070,-86.453279
The River Course,Phenix City,Alabama,United States,36867,18,3,32.495317,-85.024588
The Tiger Trail at U of W. Alabama,Livingston,Alabama,United States,35470,18,0,32.561974,-88.066347
Tumble Tree Disc Golf Course,Opelika,Alabama,United States,36801,18,4.5,32.694763,-85.395626
Univ. of Ala. Huntsville (UAH),Huntsville,Alabama,United States,35805,18,0,34.709368,-86.620290
University of Mobile Disc Golf Course,Eight Mile,Alabama,United States,36613,18,0,30.809841,-88.187450
University of Montevallo,Montevallo,Alabama,United States,35115,18,0,33.142473,-86.891528
University of South Alabama,Mobile,Alabama,United States,36608,18,0,30.681503,-88.300213
Valley Junior High Disc Golf Course,Jasper,Alabama,United States,35504,12,0,33.894135,-87.170812
Veterans Park DGC,Alabaster,Alabama,United States,35007,18,0,33.215623,-86.797656
Wallace State Community College,Hanceville,Alabama,United States,35057,18,0,34.180462,-86.934257
Aant'iyeik Park,Juneau,Alaska,United States,99801,18,0,58.372910,-134.178445
Alcantra Disc Golf - Big Su,Wasilla,Alaska,United States,99654,20,0,61.449113,-149.900744
Alcantra Disc Golf - Little Su,Wasilla,Alaska,United States,99654,9,4,61.449113,-149.900744
Birch Ridge Disc Golf Course,Soldotna,Alaska,United States,99669,18,0,60.360150,-151.017884
Buoy Dunes,St. Paul,Alaska,United States,99660,9,0,57.179041,-170.325068
Davis Park,Anchorage,Alaska,United States,99501,9,0,61.220018,-149.855702
Eagle River High School Disc Golf Course,Eagle River,Alaska,United States,99577,9,4,61.201420,-149.248298
Eureka Disc Golf at Univeristy of Alaska SE,Juneau,Alaska,United States,99801,9,0,58.372910,-134.178445
Girdwood Forest Fair Park,Girdwood,Alaska,United States,99587,36,4,60.965808,-148.876643
Glacier Point,Glacier Point,Alaska,United States,99827,18,0,59.098771,-135.576936
Glass Park at Fort Wainwright,Fairbanks,Alaska,United States,99703,18,0,64.832624,-147.622719
Hanshew Middle School,Anchorage,Alaska,United States,99507,9,2,61.147656,-149.753642
Hilltop Ski Area,Anchorage,Alaska,United States,99507,18,5,61.147656,-149.753642
Hilltop Yellow Short 9,Anchorage,Alaska,United States,99507,9,5,61.147656,-149.753642
Jack Gist Park,Homer,Alaska,United States,99603,9,4,59.538519,-151.186927
Kenai Eagle Disc Golf Course,Kenai,Alaska,United States,99611,18,0,60.600458,-151.106322
Kincaid Park Disc Golf Course,Anchorage,Alaska,United States,99502,18,4.666665,61.163643,-149.996609
King Salmon Park,King Salmon,Alaska,United States,99613,9,0,59.010266,-155.901780
Mountain Disc Golf Course at Alyeska Resort,Girdwood,Alaska,United States,99587,9,0,60.965808,-148.876643
Nikiski Recreation Center Disc Golf Course,Nikiski,Alaska,United States,99611,18,0,60.600458,-151.106322
North Point Higgins,Ketchikan,Alaska,United States,99901,18,0,55.540405,-131.105347
Palmer High School,Palmer,Alaska,United States,99645,9,0,61.624490,-148.979752
Peters Creek Disc Golf Course,Chugiak,Alaska,United States,99567,18,4,61.299351,-149.021091
Raven's Bowl,Haines,Alaska,United States,99827,18,0,59.098771,-135.576936
Reservoir Course,Cordova,Alaska,United States,99574,9,0,60.893995,-145.109037
River City Disc Golf Course on Tsalteshi Trails,Soldotna,Alaska,United States,99669,19,0,60.360150,-151.017884
Ryan Creek Disc Golf Course,Kenai,Alaska,United States,99611,9,0,60.600458,-151.106322
Schroeder Park Disc Golf Course,Eagle River,Alaska,United States,99577,9,2,61.201420,-149.248298
Service High School,Anchorage,Alaska,United States,99507,9,3,61.147656,-149.753642
Seven Pastures,Skagway,Alaska,United States,99840,18,0,59.575097,-135.335418
Seward Middle School,Seward,Alaska,United States,99664,9,0,60.076335,-149.492662
Soldotna High School,Soldotna,Alaska,United States,99669,9,0,60.360150,-151.017884
Sutton Elementary Disc Golf Course,Sutton,Alaska,United States,99674,9,0,61.591281,-148.061954
The Moose Pretzel,Homer,Alaska,United States,99603,18,5,59.538519,-151.186927
UAF Blue Disc Golf Course,Fairbanks,Alaska,United States,99709,9,0,64.862968,-148.164072
UAF Gold Disc Golf Course,Fairbanks,Alaska,United States,99709,18,4,64.862968,-148.164072
Westchester Lagoon Park,Anchorage,Alaska,United States,99503,9,2.5,62.043951,-158.175667
A.V. Anderson Park Disc Golf Course,Sierra Vista,Arizona,United States,85635,18,3.5,31.571011,-110.170235
Arizona Snowbowl,Flagstaff,Arizona,United States,86001,18,4,35.287661,-111.639303
Blanchard Disc Golf Course,Tucson,Arizona,United States,85707,18,0,32.179204,-110.886913
Buffalo Ridge Park,Phoenix,Arizona,United States,85022,27,4,33.627240,-112.048414
Cactus Flats,Kingman,Arizona,United States,86409,18,0,35.461006,-114.018060
Canyon Trails Disc Golf Course,Goodyear,Arizona,United States,85338,9,0,33.372975,-112.410829
Casa Grande Disc Golf Course - College Park,Casa Grande,Arizona,United States,85122,9,0,32.917126,-111.744208
Cerbat Cliffs Golf Course,Kingman,Arizona,United States,86401,18,0,35.131719,-113.703932
Coldwater Ranch,Peoria,Arizona,United States,85383,18,0,33.807403,-112.251970
Conocido Park,Phoenix,Arizona,United States,85053,18,3.5,33.629922,-112.131609
Copper Sky,Maricopa,Arizona,United States,85139,18,0,32.979987,-112.144852
Deer Creek Canyon at Haulapai Mountain,Kingman,Arizona,United States,86401,9,0,35.131719,-113.703932
Emerald Park,Mesa,Arizona,United States,85204,9,3,33.395720,-111.786608
Emmanuel Pines Camp,Prescott,Arizona,United States,86305,18,0,34.864326,-112.911764
Firefighters Memorial Park,Kingman,Arizona,United States,86401,9,0,35.131719,-113.703932
Fountain Hills Disc Golf Course,Fountain Hills,Arizona,United States,85268,19,4.5,33.606089,-111.743277
Four Seasons Disc Golf Course,Snowflake,Arizona,United States,85937,18,0,34.573702,-110.064102
Freestone Park,Gilbert,Arizona,United States,85234,9,0,33.361667,-111.741003
Golf Club at Oasis,Florence,Arizona,United States,85132,9,0,32.926782,-111.215097
Grand Canyon Caverns Inn Disc Golf Course,Peach Springs,Arizona,United States,86434,9,1,35.676651,-113.620551
Grand Island Disc Golf Course,Lake Havasu,Arizona,United States,86403,9,2,34.480257,-114.348504
Greens Park Disc Golf Course,San Tan Valley,Arizona,United States,85143,9,0,33.158661,-111.519050
Groves Park,Tucson,Arizona,United States,85730,9,4.5,32.181544,-110.746552
Hidden Cove Disc Golf Course,Holbrook,Arizona,United States,86025,18,0,34.930781,-110.104808
Ironside Bluffs,Show Low,Arizona,United States,85901,18,5,34.314806,-110.024014
Los Olivos,Phoenix,Arizona,United States,85016,9,3.75,33.511517,-112.019166
Marana Rock Disc Golf Course,Marana,Arizona,United States,85743,18,4.166665,32.302273,-111.181848
Marbella Vineyards,Gilbert,Arizona,United States,85298,9,3.5,33.241186,-111.726727
Maricopa Meadows,Maricopa,Arizona,United States,85138,27,0,33.007626,-111.989532
McKellips Lake,Scottsdale,Arizona,United States,85257,3,0,33.461960,-111.916392
McPherson Park,Flagstaff,Arizona,United States,86001,18,3.5,35.287661,-111.639303
Meadview,Meadview,Arizona,United States,86444,9,2.5,35.897037,-114.047212
Mesquite Grove Disc Golf Course,Chandler,Arizona,United States,85249,9,2.333335,33.224956,-111.795717
Moeur Park,Phoenix (Tempe),Arizona,United States,85282,18,4,33.393984,-111.932906
Mountain Bridge Disc Golf Practice Area,Mesa,Arizona,United States,85207,5,0,33.454586,-111.637972
Mountain Meadow Ranch,Payson,Arizona,United States,85541,18,0,34.194537,-111.304309
Mountainview at MCC,Bullhead City,Arizona,United States,86442,9,5,35.089613,-114.560868
Northern Arizona University Disc Golf Course,Flagstaff,Arizona,United States,86001,18,0,35.287661,-111.639303
Page Disc Golf,Page,Arizona,United States,86040,9,0,36.705496,-111.427538
Paseo Vista Recreation Area,Chandler,Arizona,United States,85286,18,3.666665,33.271981,-111.831774
Ponderosa Park,Prescott,Arizona,United States,86303,18,4,34.482405,-112.449649
Queen Creek Disc Golf,Queen Creek,Arizona,United States,85142,7,0,33.199990,-111.636294
Red Mountain - North,"Mesa,",Arizona,United States,85207,18,3,33.454586,-111.637972
Red Mountain - South,Mesa,Arizona,United States,85207,18,3,33.454586,-111.637972
Redline Disc Golf Course,Glendale,Arizona,United States,85303,18,0,33.532699,-112.221063
Ridge Line Disc Golf Course,Flagstaff,Arizona,United States,86001,9,0,35.287661,-111.639303
Rillito River Park Disc Golf Course,Tucson,Arizona,United States,85719,18,4.25,32.246719,-110.948657
Riverfront Park,Cottonwood,Arizona,United States,86326,18,4,34.700031,-112.023634
Riverview Disc Golf Course,Bullhead City,Arizona,United States,86442,9,3,35.089613,-114.560868
Rumsey Park,Payson,Arizona,United States,85541,9,3.666665,34.194537,-111.304309
Sam Lena Park,Tucson,Arizona,United States,85713,6,5,32.194570,-111.014995
Santa Cruz River Park,Tucson,Arizona,United States,85745,18,3.5,32.253908,-111.080140
SARA Park Disc Golf Course,Lake Havasu City,Arizona,United States,86406,18,0,34.423236,-114.109863
School House Gulch,Prescott,Arizona,United States,86303,18,0,34.482405,-112.449649
Sears Park,Tucson,Arizona,United States,85711,9,4,32.215235,-110.883394
Show Low Disc Golf Course,Show Low,Arizona,United States,85901,18,5,34.314806,-110.024014
Skyline Ranch,SanTan Valley,Arizona,United States,85142,9,4.333335,33.199990,-111.636294
Sundance Park,Buckeye,Arizona,United States,85326,18,5,33.293755,-112.590514
Sunrise Ski Resort,Fort Apache,Arizona,United States,85930,18,0,34.047324,-109.720674
Tall Timbers Disc Golf Course,Heber/ Overgaard,Arizona,United States,85928,9,0,34.545363,-110.551182
The Boneyard,Globe,Arizona,United States,85501,9,0,33.559004,-110.769126
The Lost Forrest,Huachuca City,Arizona,United States,85616,9,0,31.701994,-110.322654
Thorpe Park,Flagstaff,Arizona,United States,86001,18,2.5,35.287661,-111.639303
Thunderbird-Paseo,Phoenix (Glendale),Arizona,United States,85304,18,2.8,33.599739,-112.178276
Tobin Brenard Disc Golf Course,Quartzite,Arizona,United States,85346,9,0,33.635982,-114.145877
Tortosa Disc Golf Course,Maricopa,Arizona,United States,85138,9,0,33.007626,-111.989532
Vista del Camino Park,Phoenix (Scottsdale),Arizona,United States,85257,18,4.5,33.461960,-111.916392
Watson Lake,Prescott,Arizona,United States,86301,18,4,34.587023,-112.429033
Wayne Ranch Disc Golf Course,Queen Creek,Arizona,United States,85140,9,0,33.244531,-111.543812
West Wetlands Park,Yuma,Arizona,United States,85364,9,2,32.702260,-114.658013
Wilderness Ranch,Lakeside,Arizona,United States,85929,18,0,34.184683,-109.939822
Willow Lake Disc Golf Course,Prescott,Arizona,United States,86301,18,0,34.587023,-112.429033
Wood Land,Pinetop-Lakeside,Arizona,United States,85929,18,4,34.184683,-109.939822
Alma Flying Disc Golf Course,Alma,Arkansas,United States,72921,18,0,35.477101,-94.196225
Alma Middle School Disc Golf Course,Alma,Arkansas,United States,72921,9,0,35.477101,-94.196225
Arkadelphia Youth Sports Complex,Arkadelphia,Arkansas,United States,71923,18,4,34.085089,-93.045270
Arkansas Tech University,Ozark,Arkansas,United States,72949,9,0,35.584277,-93.805165
ASUMH Disc Golf Course,Mountain Home,Arkansas,United States,72653,18,0,36.342381,-92.385430
Bear Trail Disc Golf Course,Conway,Arkansas,United States,72035,3,3,35.078763,-92.457353
Beaverfork Disc Golf Course,Conway,Arkansas,United States,73032,18,4,34.398366,-97.047749
Bell Park Disc Golf Course,Greenwood,Arkansas,United States,72936,18,0,35.189721,-94.218511
Ben Geren Park - Massard Creek Disc Golf Course,Fort Smith,Arkansas,United States,72903,18,0,35.350978,-94.361247
Ben Geren Park - North Yellow,Fort Smith,Arkansas,United States,72916,18,4,35.260747,-94.390099
Ben Geren Park - South Orange,Fort Smith,Arkansas,United States,72916,18,0,35.260747,-94.390099
Bluegrass Trails Disc Golf Course,Mountain View,Arkansas,United States,72560,18,2.5,35.851011,-92.094066
Booneville Disc Golf Course,Booneville,Arkansas,United States,72927,18,0,35.080054,-93.939867
Bovine 9 at Catherine's Landing,Hot Springs,Arkansas,United States,71901,9,4,34.526453,-92.974072
Branchwood Disc Golf Course,Bella Vista,Arkansas,United States,72715,18,5,36.467146,-94.304915
Broadmoor Lake Disc Golf Course,Little Rock,Arkansas,United States,72204,9,0,34.717617,-92.358338
Burns Park - Blue,North Little Rock,Arkansas,United States,72118,18,0,34.840468,-92.326035
Burns Park - Junior,North Little Rock,Arkansas,United States,72118,9,0,34.840468,-92.326035
Burns Park - Red,North Little Rock,Arkansas,United States,72118,18,0,34.840468,-92.326035
Cabin Creek,Lamar,Arkansas,United States,72846,9,0,35.483900,-93.326796
Cedar Creek Disc Golf Course,West Fork,Arkansas,United States,72774,18,0,35.948327,-94.147185
Cedar Glades,Hot Springs,Arkansas,United States,71913,18,5,34.449239,-93.094266
Cedar Street Park,Trumann,Arkansas,United States,72472,9,0,35.596453,-90.534179
Cherokee Acres Disc Golf Course,Cherokee Village,Arkansas,United States,72529,9,0,36.291822,-91.564287
City Lake Park,Siloam Springs,Arkansas,United States,72761,9,0,36.168814,-94.454856
City of Charleston,Charleston,Arkansas,United States,72933,9,0,35.328642,-94.013024
Clarksville Schools,Clarksville,Arkansas,United States,72830,9,0,35.509167,-93.515619
Cline Park Disc Golf Course,Clarksville,Arkansas,United States,72830,18,0,35.509167,-93.515619
Clinton Disc Golf Course,Clinton,Arkansas,United States,72031,18,0,35.633661,-92.531647
Craighead Forest Disc Golf - Red,Jonesboro,Arkansas,United States,72404,18,0,35.773862,-90.778838
Craighead Forest Disc Golf - Yellow,Jonesboro,Arkansas,United States,72401,18,0,35.886344,-90.656774
Creekside Park Disc Golf Course,Farmington,Arkansas,United States,72730,18,0,36.030477,-94.268676
Cross Hollow Disc Golf Course,Rogers,Arkansas,United States,72758,9,3,36.299665,-94.137210
Danville Disc Golf Course,Danville,Arkansas,United States,72833,9,0,35.021703,-93.472595
Decatur Disc Golf Course,Decatur,Arkansas,United States,72722,9,0,36.343769,-94.469944
Deer Creek Disc Golf Course,Monticello,Arkansas,United States,71655,18,3.75,33.639802,-91.749587
DeGray Lake Resort State Park Disc Golf,Bismarck,Arkansas,United States,71929,18,0,34.303737,-93.159556
DeGray Lower Lake Disc Golf Course,Caddo Valley,Arkansas,United States,71923,18,5,34.085089,-93.045270
Disc Side of Heaven - Champ Course,Jonesboro,Arkansas,United States,72404,18,0,35.773862,-90.778838
Disc Side of Heaven - Rec Course,Jonesboro,Arkansas,United States,72404,18,0,35.773862,-90.778838
Dupree Park,Jacksonville,Arkansas,United States,72076,18,0,34.916182,-92.141483
Eighteens at The Pond - East,Little Rock,Arkansas,United States,72204,18,0,34.717617,-92.358338
Eighteens at The Pond - West,Little Rock,Arkansas,United States,72204,18,0,34.717617,-92.358338
Fair Park,Hope,Arkansas,United States,71801,9,0,33.645886,-93.598921
Fairview Elementary School,Fort Smith,Arkansas,United States,72901,6,0,35.366187,-94.416458
Fellowship Creek Disc Golf Course,Russellville,Arkansas,United States,72801,9,0,35.279126,-93.140877
Forest Home Church,Jonesboro,Arkansas,United States,72401,9,0,35.886344,-90.656774
Future Fuel Disc Golf Course,Batesville,Arkansas,United States,72501,18,0,35.791171,-91.653381
Gentry City Park,Gentry,Arkansas,United States,72734,9,0,36.270250,-94.451058
Greenbrier Disc Golf Course,Greenbrier,Arkansas,United States,72058,18,0,35.245918,-92.374199
Har-Ber Meadows,Springdale,Arkansas,United States,72762,9,0,36.181650,-94.230680
Harding University,Searcy,Arkansas,United States,72143,18,3,35.232983,-91.736474
Harp Elementary School,Springdale,Arkansas,United States,72764,9,0,36.175682,-94.060223
Herman Dierks Disc Golf Course,De Queen,Arkansas,United States,71832,9,0,34.036919,-94.351136
Hickory Hollow,Russellville,Arkansas,United States,72801,9,0,35.279126,-93.140877
Hindman Park,Little Rock,Arkansas,United States,72209,9,0,34.676378,-92.345074
Holcomb Elementary School,Fayetteville,Arkansas,United States,72704,9,0,36.105647,-94.296500
Industrial Park,Searcy,Arkansas,United States,72143,18,0,35.232983,-91.736474
JB Hunt Park - JBeast Junior,Springdale,Arkansas,United States,72762,9,0,36.181650,-94.230680
JB Hunt Park - Main,Springdale,Arkansas,United States,72762,18,2,36.181650,-94.230680
John Brown University Disc Golf Course,Siloam Springs,Arkansas,United States,72761,9,0,36.168814,-94.454856
Keaton Coyle Memorial Disc Golf Course,Prairie Grove,Arkansas,United States,72753,18,0,35.933889,-94.331072
Kerr Station Park,Cabot,Arkansas,United States,72023,18,3,34.964267,-92.063652
KJ Memorial Park,Lowell,Arkansas,United States,72745,18,4,36.246524,-94.102609
Lavaca Elementary,Lavaca,Arkansas,United States,72941,9,0,35.367917,-94.156308
Leslie Disc Golf Course,Leslie,Arkansas,United States,72645,9,0,35.804138,-92.575385
Little Debbie Disc Golf Course,Gentry,Arkansas,United States,72734,9,0,36.270250,-94.451058
London Disc Golf Course,London,Arkansas,United States,72847,9,0,35.377533,-93.273453
Lucas Pond Disc Golf Course,Crossett,Arkansas,United States,71635,18,0,33.131052,-91.996505
McKissick Disc Golf Course,Centerton,Arkansas,United States,72719,9,4,36.367161,-94.295087
Mena Lions Club Disc Golf Course,Mena,Arkansas,United States,71953,18,0,34.608016,-94.197193
Merritt Park,Dardanelle,Arkansas,United States,72834,9,0,35.168824,-93.183821
Mid-South Community College,West Memphis,Arkansas,United States,72301,18,0,35.144685,-90.189236
Morehart Park,Mabelvale,Arkansas,United States,72103,9,0,34.590486,-92.390045
Mossy Bluff Disc Golf Course,Heber Springs,Arkansas,United States,72543,18,0,35.450539,-91.987292
Mulberry Disc Golf Course,Mulberry,Arkansas,United States,72947,9,0,35.572054,-94.028384
Mulerider Disc Golf Course,Magnolia,Arkansas,United States,71753,18,0,33.225678,-93.184674
Nashville Disc Golf Course,Nashville,Arkansas,United States,71852,18,0,33.997681,-93.855553
Newark Disc Golf at Cedar Ridge,Newark,Arkansas,United States,72562,18,0,35.735469,-91.401119
Norman City Park Disc Golf Course,Hamburg,Arkansas,United States,71646,9,0,33.235544,-91.787587
North Arkansas College,Harrison,Arkansas,United States,72601,18,0,36.238028,-93.085992
Northshore,Fayetteville,Arkansas,United States,72764,18,4.25,36.175682,-94.060223
Old Post Park Disc Golf Course,Russellville,Arkansas,United States,72802,18,5,35.318940,-93.081593
Old Town Park,Gravette,Arkansas,United States,72736,9,0,36.413616,-94.465023
Ouachita Baptist University Disc Golf Course,Arkadelphia,Arkansas,United States,71998,18,1,34.126385,-93.055286
Owl Creek Elementary,Fayetteville,Arkansas,United States,72704,9,0,36.105647,-94.296500
Ozark Adventist Academy,Gentry,Arkansas,United States,72734,9,0,36.270250,-94.451058
Ozark Disc Golf at West Side Park,Ozark,Arkansas,United States,72949,18,0,35.584277,-93.805165
Patmos Park,Patmos,Arkansas,United States,71801,6,0,33.645886,-93.598921
Persimmon Ridge Disc Golf Course,Greenbrier,Arkansas,United States,72058,18,0,35.245918,-92.374199
Pine Valley Golf Course,Sherwood,Arkansas,United States,72120,18,0,34.902043,-92.240819
Pirates Ridge Disc Golf Course,Calico Rock,Arkansas,United States,72519,18,0,36.134123,-92.180309
Pleasant View Disc Golf Course,Russellville,Arkansas,United States,72802,18,4,35.318940,-93.081593
Ramsey Jr. High School,Fort Smith,Arkansas,United States,72901,9,0,35.366187,-94.416458
Reservoir Park Disc Golf Course,Little Rock,Arkansas,United States,72227,18,0,34.775283,-92.374573
Sports Life Disc Golf,Springdale,Arkansas,United States,72762,18,0,36.181650,-94.230680
Taylor Park,Greenland,Arkansas,United States,72701,9,0,35.992387,-94.085584
The Course at Lyon College,Batesville,Arkansas,United States,72501,18,0,35.791171,-91.653381
The Farm Disc Golf Course,Eureka Springs,Arkansas,United States,72631,18,0,36.467606,-93.834419
The TRAXX at Bishop Park,Bryant,Arkansas,United States,72022,18,0,34.607458,-92.488544
Tilles Park,Fort Smith,Arkansas,United States,72901,9,0,35.366187,-94.416458
Timberwolf Disc Golf Course,Morrilton,Arkansas,United States,72110,9,0,35.156495,-92.781326
Trinity Junior High Disc Golf,Fort Smith,Arkansas,United States,72903,9,0,35.350978,-94.361247
Twin Creeks Disc Golf Course,Rogers,Arkansas,United States,72758,18,2.5,36.299665,-94.137210
Tyndall Park Youth Disc Golf Course,Benton,Arkansas,United States,72015,18,0,34.485899,-92.585099
Vandergriff Elementary School,Fayetteville,Arkansas,United States,72703,9,0,36.118332,-94.043243
Waxhaws Disc Golf Course,Fayetteville,Arkansas,United States,72701,18,0,35.992387,-94.085584
Williams Baptist College Disc Golf Course,Walnut Ridge,Arkansas,United States,72476,18,0,36.049514,-90.919912
Windy Hills Disc Golf at Mitchusson Park,Huntsville,Arkansas,United States,72740,9,5,36.104648,-93.655397
Winkler Disc Course,Harrison,Arkansas,United States,72601,18,0,36.238028,-93.085992
Woodland Mead Disc Golf Course,Fairfield Bay,Arkansas,United States,72088,9,0,35.595187,-92.267834
Mount Shasta Ski Park - Marmot Ridge,McCloud,California,United States,96057,9,0,41.268682,-121.930940
Alumni Park at Pepperdine,Malibu,California,United States,90263,9,2,34.039034,-118.707992
Anderson River Park,Anderson,California,United States,96007,18,3.5,40.458029,-122.277830
Anderson Valley Brewing Company,Boonville,California,United States,95494,18,3.666665,38.889651,-123.337821
Angelus Oaks Lodge Disc Golf Course,Angelus Oaks,California,United States,92305,6,0,34.141671,-116.817981
Aptos High School Disc Golf Course,Aptos,California,United States,95003,18,4.4,37.006700,-121.878207
Aquatic Park,Berkeley,California,United States,94703,18,3,37.863911,-122.275643
Arakelian Park Disc Golf Course,Livingston,California,United States,95334,5,2,37.347307,-120.742627
Auburn Regional Park,Auburn,California,United States,95603,18,5,38.915869,-121.080284
Avalon Park Disc Golf,Victorville,California,United States,92395,6,0,34.501472,-117.292048
B. T. Collins Park,Folsom,California,United States,95630,9,3,38.666597,-121.141635
Bartlett Park Disc Golf Course,Porterville,California,United States,93257,18,0,35.988087,-118.860221
Beachfront Park Disc Golf Course,Crescent City,California,United States,95531,24,3.5,41.819578,-124.065667
Beattie Park,Lompoc,California,United States,93436,18,3,34.595669,-120.352667
Beau Pre DiscGolfPark,McKinleyville,California,United States,95519,18,5,40.959368,-124.051236
Benicia Community Park,Benicia,California,United States,94510,9,2,38.098071,-122.135940
Big Trees Golf Course,Yosemite National Park,California,United States,95389,18,0,37.626489,-119.681280
Bijou Community Park,South Lake Tahoe,California,United States,96150,27,5,38.869825,-120.008594
Birds of Paradise,Miranda,California,United States,95553,27,5,40.244215,-123.888871
Black Butte Disc Golf Course,Shingletown,California,United States,96088,9,0,40.510870,-121.876112
Black Butte Lake Disc Golf Course,Orland,California,United States,95963,18,4.125,39.736308,-122.259338
Blackrock Disc Golf Course,Cobb,California,United States,95426,18,4,38.833425,-122.734061
Boosinger Practice Course,Pismo Beach,California,United States,93449,1,0,35.165671,-120.655844
Boron School Disc Cats,Boron,California,United States,93516,10,0,35.002282,-117.629941
Brengle Terrace Park Disc Golf Course,Vista,California,United States,92084,18,4,33.219935,-117.202606
Bridge to Bridge,Santa Cruz,California,United States,95060,9,0,37.036461,-122.121750
Brooktrails Golf Course,Willits,California,United States,95490,18,5,39.492842,-123.340973
Browns and Bows,Browns Valley,California,United States,95918,36,0,39.301229,-121.337929
Browns and Bows Disc Golf Course - Back,Browns Valley,California,United States,95918,18,0,39.301229,-121.337929
Browns and Bows Disc Golf Course - Front,Browns Valley,California,United States,95918,18,5,39.301229,-121.337929
Buckeye Park,Redding,California,United States,96003,18,0,40.751937,-122.230678
Buckingham Golf Course,Kelseyville,California,United States,95451,18,0,38.922131,-122.789559
Buena Vista High School,Taft,California,United States,93268,4,0,35.162393,-119.425116
Buena Vista Hill Disc Golf Course at Elysian Park,Los Angeles,California,United States,90012,5,1,34.065975,-118.238642
Buttonwillow Park,Buttonwillow,California,United States,93206,9,0,35.437302,-119.477735
Cachuma Lake Disc Golf Course,Santa Barbara,California,United States,93105,18,4,34.533222,-119.791731
Camerado Springs Middle School,Cameron Park,California,United States,95682,9,4,38.612129,-120.964522
Cameron Park Lake Disc Golf Course,Cameron Park,California,United States,95682,18,0,38.612129,-120.964522
Camp Jones Gulch,La Honda,California,United States,94020,9,0,37.274612,-122.232420
Camp Pendleton - 21 Area,Oceanside,California,United States,92058,9,0,33.343438,-117.317250
Camp Pendleton Barracks Disc Golf - 13 Area,Oceanside,California,United States,92058,9,0,33.343438,-117.317250
Captain JohnÂ’s Fawn Harbor and Marina,Fawnskin,California,United States,92333,10,0,34.270601,-116.949309
Carmel Middle School,Carmel,California,United States,93923,18,1,36.448672,-121.849502
Carmichael Park Disc Golf Course,Carmichael,California,United States,95608,9,2,38.624150,-121.324911
Centennial Park,Hanford,California,United States,93230,9,1,36.292230,-119.622676
Central Park Disc Golf Course,Santa Clarita,California,United States,91350,18,3.25,34.440891,-118.501747
Chabot Park,San Leandro,California,United States,94577,9,2.4,37.713275,-122.167350
Chaparral Disc Golf Course,Oak Park,California,United States,91377,10,0,34.184975,-118.766918
Chavez Ridge Disc Golf Course at Elysian,Los Angeles,California,United States,90012,27,3.57143,34.065975,-118.238642
China Peak Disc Golf,Lakeshore,California,United States,93634,27,5,37.223580,-119.000834
Christa McAuliffe Middle School Disc Golf,Stockton,California,United States,95209,9,0,38.046863,-121.352802
Church of LDS Disc Golf Course,Nevada City,California,United States,95959,9,0,39.347811,-120.918728
City In the Hills,Bakersfield,California,United States,93306,18,0,35.468183,-118.779649
Coalinga Disc Golf Course,Coalinga,California,United States,93210,18,0,36.197785,-120.422249
Coast Guard Air Station Humboldt Bay,McKinleyville,California,United States,95519,9,0,40.959368,-124.051236
Cody Minter Disc Golf Course,Raymond,California,United States,93653,9,0,37.248335,-119.944935
Colina Park Golf Course,San Diego,California,United States,92105,18,4,32.737827,-117.092673
College of Marin Campus Course,Kentfield,California,United States,94904,18,0,37.945512,-122.560120
College of the Redwoods,Fort Bragg,California,United States,95437,13,4,39.487185,-123.741963
Colton Disc Golf Course,Colton,California,United States,92324,18,0,34.024520,-117.289255
Concordia University Irvine Disc Golf Course,Irvine,California,United States,92612,9,5,33.658440,-117.826009
Cooper Gulch,Eureka,California,United States,95501,9,4,40.798659,-124.151583
Coyote Creek Disc Golf Course at Hellyer Park,San Jose,California,United States,95111,9,4.166665,37.283111,-121.826245
Coyote Point Disc Golf Course at Lake Casitas,Ventura,California,United States,93001,18,4.833335,34.037340,-119.800786
Crane Creek Disc Golf,Santa Rosa,California,United States,95404,18,0,38.525733,-122.690443
Crowleg Disc Golf at Hickey Park,Hanford,California,United States,93230,18,0,36.292230,-119.622676
CSU San Marcos Disc Golf Course,San Marcos,California,United States,92078,18,1.5,33.117154,-117.180627
CSUMB Cypress Disc Golf Course,Seaside,California,United States,93955,20,4.25,36.614410,-121.786901
CSUMB Oaks Disc Golf Course,Seaside,California,United States,93955,20,3.666665,36.614410,-121.786901
Cypress Community Church,Salinas,California,United States,93908,9,0,36.651745,-121.599444
David L. Baker Golf Course,Fountain Valley,California,United States,92708,18,5,33.710582,-117.951129
DeBell Disc Golf Course,Burbank,California,United States,91501,9,3.5,34.204400,-118.287527
Deer Meadow Disc Golf Course,Lewiston,California,United States,96052,9,0,40.738391,-122.821086
Deerfield Community Park,Irvine,California,United States,92604,9,4,33.690715,-117.789224
DeLaveaga Disc Golf Course,Santa Cruz,California,United States,95065,29,4.642855,37.031475,-121.983340
DeLaveaga Golf Course,Santa Cruz,California,United States,95065,18,0,37.031475,-121.983340
Desert Sands Park Disc Golf Course,Palmdale,California,United States,93550,9,2.5,34.408548,-118.123592
Desert Winds Disc Golf Course,Twentynine Palms,California,United States,92278,9,0,34.229973,-116.055053
Diamond Arrow Disc Golf Course,Nevada City,California,United States,95959,9,0,39.347811,-120.918728
Dog Island Disc Golf,Red Bluff,California,United States,96080,18,4,40.181890,-122.377104
Doris Davies Park Disc Golf Course,Victorville,California,United States,92394,9,2.666665,34.556111,-117.353632
East La Loma Park,Modesto,California,United States,95354,27,4,37.639029,-120.964772
Edgewater Disc Golf Course,Redding,California,United States,96002,18,0,40.527834,-122.318749
El Dorado Park Disc Golf Course,Long Beach,California,United States,90815,18,4,33.794348,-118.116391
Elk Grove Disc Golf Course,Elk Grove,California,United States,95624,9,2,38.427507,-121.314899
Emerald Hills Disc Golf Course,Redwood City,California,United States,94061,18,5,37.461147,-122.236948
Enterprise Community Park,Redding,California,United States,96002,18,2,40.527834,-122.318749
Escondido Rotary Disc Golf Course at Kit Carson Park,Escondido,California,United States,92025,18,3.5,33.102005,-117.080419
Evergreen Forest,Mather,California,United States,95321,9,0,37.864258,-120.004543
Evergreen Open Space,Santa Barbara (Goleta),California,United States,93117,18,3.5,34.479453,-120.084094
Fahrens Park Disc Golf Course,Merced,California,United States,95348,21,3,37.392287,-120.498299
Fallen Heroes Park Disc Golf Course,Beaumont,California,United States,92223,9,0,33.948255,-116.987839
Feeney,Murphys,California,United States,95247,18,0,38.138539,-120.452903
Ferns Park,Woodland,California,United States,95695,9,2.5,38.687045,-121.857077
FICA Urban Play,Fort Irwin,California,United States,92310,7,0,35.261460,-116.690324
Finnon Lake,Placerville,California,United States,95667,27,4.285715,38.734925,-120.789952
Firebaugh Disc Golf Course,Firebaugh,California,United States,93622,10,2,36.814503,-120.575240
Ford Park,Redlands,California,United States,92374,9,2,34.067146,-117.171885
Foxwood at Lake Almanor,Lake Almanor,California,United States,96137,7,0,40.270731,-121.039461
Franklin Field,Taft,California,United States,93268,18,3,35.162393,-119.425116
Frontier Park,Tustin,California,United States,92780,9,1.333335,33.734005,-117.819163
Gehringer Park Recreation Club,Concord,California,United States,94519,4,0,37.988451,-122.013001
Georgetown School Disc Golf Course,Georgetown,California,United States,95634,9,0,38.936904,-120.772283
Glen Helen Regional Park Disc Golf Course,San Bernardino,California,United States,92407,18,0,34.212433,-117.381239
Gleneagles Disc Golf Course,San Francisco,California,United States,94134,18,1,37.721052,-122.413573
Goat Hill Park,Oceanside,California,United States,92054,18,4,33.195534,-117.354538
Golden Gate Park Disc Golf Course,San Francisco,California,United States,94121,18,4.46154,37.776769,-122.494707
Green Valley Disc Golf Course,Green Valley,California,United States,91390,9,4,34.545587,-118.420095
H. Clarke Powers Elementary School,Loomis,California,United States,95650,9,2,38.809175,-121.171375
Hammer of Thor at Clement Middle School,Redlands,California,United States,92374,9,0,34.067146,-117.171885
Hammon Grove Park,Browns Valley,California,United States,95918,18,3,39.301229,-121.337929
Hanging Oaks at Western Gateway Park,Penn Valley,California,United States,95946,18,4,39.215586,-121.203240
Hart Park - Shark Tooth Mountain Disc Golf Course,Bakersfield,California,United States,93308,18,3.5,35.621087,-118.789677
Hart Park - Suicide Flats,Bakersfield,California,United States,93308,18,5,35.621087,-118.789677
Heilmann Park,Atascadero,California,United States,93422,18,4,35.463544,-120.692911
Hensley Lake Disc Golf Course,Raymond,California,United States,93653,18,4.5,37.248335,-119.944935
Heritage Park Disc Golf Course,Lemoore,California,United States,93245,18,0,36.292270,-119.829463
Highland Springs Reservoir,Lakeport,California,United States,95453,23,3,39.045931,-122.941077
Hillcrest Community Park,Concord,California,United States,94520,9,4,37.995285,-122.040627
Howard Park,Ione,California,United States,95640,12,1,38.325248,-120.955787
Huntington Beach Central Park,Huntington Beach,California,United States,92647,18,3.666665,33.723228,-118.008692
Isla Vista Peace Course,Santa Barbara (Isla Vista),California,United States,93117,9,1.5,34.479453,-120.084094
Jenness Park Christian Camp,Cold Springs,California,United States,95335,9,0,38.124887,-120.093146
Joe Hamilton Elementary,Crescent City,California,United States,95531,7,0,41.819578,-124.065667
John Mackey Park,Sacramento,California,United States,95815,9,3,38.605407,-121.447593
Kearney Park,Fresno,California,United States,93706,18,0,36.652065,-119.906591
Kelley Park Disc Golf Course,San Jose,California,United States,95112,18,4.5,37.344482,-121.883535
Kelly Ridge Golf Course,Oroville,California,United States,95966,18,4,39.475360,-121.414110
Kenneth Hahn State Rec. Area Disc Golf Course,Los Angeles,California,United States,90056,9,4.5,33.988047,-118.370361
Kern River Disc Golf Course,Bakersfield,California,United States,93309,12,2.666665,35.342891,-119.064803
Kern River Golf Course,Bakersfield,California,United States,93306,18,0,35.468183,-118.779649
Kings River Disc Golf Course,Kingsburg,California,United States,93631,18,0,36.478239,-119.521370
Kirkwood Mountain Resort,Kirkwood,California,United States,95646,18,5,38.689261,-120.054975
Kiwanis Disc Golf Course at Town & Country Park,Madera,California,United States,93637,9,0,36.918079,-120.185933
KOA Campground,Willits,California,United States,95490,18,3,39.492842,-123.340973
La Mirada Regional Park - Back 18,La Mirada,California,United States,90638,18,4.666665,33.902045,-118.008961
La Mirada Regional Park - Lake 18,La Mirada,California,United States,90638,18,4.266665,33.902045,-118.008961
Lagoon Valley Disc Golf Course,Vacaville,California,United States,95687,27,4.5,38.333133,-121.920151
Laguna Lake,San Luis Obispo,California,United States,93405,18,2.25,35.296958,-120.733134
Lake Amador Campground,Ione,California,United States,95640,18,0,38.325248,-120.955787
Lake Amador North,Ione,California,United States,95640,18,0,38.325248,-120.955787
Lake Amador South,Ione,California,United States,95640,18,5,38.325248,-120.955787
Lake California Disc Golf,Cottonwood,California,United States,96022,9,0,40.336387,-122.448511
Lake Chabot Disc Golf Course - Bay,Oakland,California,United States,94605,18,0,37.761408,-122.150198
Lake Chabot Disc Golf Course - Hills,Oakland,California,United States,94605,18,0,37.761408,-122.150198
Lake Chabot Disc Golf Course - Lake,Oakland,California,United States,94605,9,4.5,37.761408,-122.150198
Lake Forest Golf And Practice Center,Lake Forest,California,United States,92630,9,0,33.645736,-117.685503
Lake Mendocino (North),Ukiah,California,United States,95482,18,2,39.135023,-123.259338
Lake Mendocino (South),Ukiah,California,United States,95482,18,3,39.135023,-123.259338
Lake Sonoma,Geyserville,California,United States,95441,9,0,38.731694,-122.906767
LARPD Disc Golf Course,Livermore,California,United States,94551,9,3,37.750502,-121.749055
Lava Creek Disc Golf,Paradise,California,United States,95969,18,3,39.716846,-121.646180
Lee Fong Park Disc Golf Course,Weaverville,California,United States,96093,18,0,40.765478,-122.941428
Liberty Park,Cerritos,California,United States,90703,9,2,33.867743,-118.069472
Lions Park,Placerville,California,United States,95667,12,4,38.734925,-120.789952
Little Basin Disc Golf Course,Boulder Creek,California,United States,95006,9,0,37.171267,-122.149524
Los Arboles Middle School Disc Golf Course,Marina,California,United States,93933,9,0,36.686845,-121.786887
Low Gap Park,Ukiah,California,United States,95482,18,4,39.135023,-123.259338
Mad River Pump Station #4,Arcata,California,United States,95521,9,3,40.855694,-124.066898
Manchester Beach KOA,Manchester,California,United States,95459,18,2,38.976640,-123.604802
Manila Bay Disc Golf Course,Arcata,California,United States,95521,9,3,40.855694,-124.066898
Mast Park,Santee,California,United States,92071,9,4,32.852358,-116.987842
McClatchy Park,Sacramento,California,United States,95814,9,0,38.580568,-121.495590
Mendocino College Disc Golf Course,Ukiah,California,United States,95482,27,3,39.135023,-123.259338
Mendocino High School,Mendocino,California,United States,95460,18,4,39.305245,-123.748616
Michael Faklis Park,Stockton,California,United States,95219,18,0,38.051726,-121.483036
Micke Grove Park,Lodi,California,United States,95240,18,4,38.114388,-121.144658
Miller Park,Fair Oaks,California,United States,95628,9,0,38.652065,-121.254410
Millpond County Park,Bishop,California,United States,93514,18,0,37.492115,-118.390408
Miner's Point Disc Golf Course,Junction City,California,United States,96048,18,0,40.829014,-123.022859
Mission Bay Golf Course,San Diego,California,United States,92109,18,0,32.786772,-117.234207
Mission Hills,North Hills,California,United States,91343,18,3.5,34.237912,-118.482306
Mohawk Disc Golf Couse at Cachuma Lake,Santa Barbara,California,United States,93105,18,0,34.533222,-119.791731
Mojave Greens,Edwards AFB,California,United States,93524,18,5,34.931987,-117.907127
Mojave Narrows Disc Golf Course,Victorville,California,United States,92395,18,0,34.501472,-117.292048
Mollie Joyce Park Disc Golf Course,Pioneer,California,United States,95666,18,2.5,38.523861,-120.376629
Monarch Bay,San Leandro,California,United States,94577,18,0,37.713275,-122.167350
Montiel Park Disc Golf Course,San Marcos,California,United States,92069,9,3,33.170775,-117.158676
Monument Ridge Disc Golf Course,Raymond,California,United States,93653,9,3,37.248335,-119.944935
Moore Middle School,Redlands,California,United States,92374,9,0,34.067146,-117.171885
Moraga Commons Park,Moraga,California,United States,94556,9,3.8,37.840645,-122.114877
Morley Field,San Diego,California,United States,92104,19,4.3,32.741501,-117.127948
Mount Shasta Ski Park - Douglas Butte,McCloud,California,United States,96057,18,0,41.268682,-121.930940
Mountain Pride Disc Golf,Murrieta,California,United States,92562,18,4,33.547613,-117.344040
Mt. Baldy Disc Golf Course,Mt. Baldy,California,United States,91759,18,0,34.263636,-117.699470
Mt. Waterman Disc Golf Course,La Canada,California,United States,93553,18,4,34.407332,-117.911841
Mt. Whitney Golf Club,Lone Pine,California,United States,92545,9,0,33.729853,-117.034060
Murry Park,Porterville,California,United States,93257,9,0,35.988087,-118.860221
Narrows Disc Golf Course,Riverside,California,United States,92504,18,0,33.903134,-117.398044
National/Johnson Field,Travis AFB,California,United States,94535,9,0,38.282221,-121.924715
New Hogan Dam - East,Valley Springs,California,United States,95252,18,0,38.149816,-120.846670
New Hogan Dam - West,Valley Springs,California,United States,95252,18,4,38.149816,-120.846670
Nicklaus DiscGolfPark,Beaumont,California,United States,92223,9,0,33.948255,-116.987839
Northside Park,Azusa,California,United States,91702,9,2.666665,34.280333,-117.866141
Oak Grove (Hahamongna Park),Pasadena,California,United States,91103,21,3.916665,34.169538,-118.164941
Oak Grove Regional Park - Gold,Stockton,California,United States,95204,18,0,37.973736,-121.319246
Oak Grove Regional Park - Purple,Stockton,California,United States,95209,19,3,38.046863,-121.352802
Oak View Park Disc Golf Course,Beaumont,California,United States,92223,9,0,33.948255,-116.987839
Old Ranch and Summit View Parks,San Ramon,California,United States,94583,10,3.25,37.755120,-121.972699
Old Sawmill,Pacific Grove,California,United States,93950,24,0,36.621181,-121.925179
Olive Glen Disc Golf Course at Sycuan Resort,El Cajon,California,United States,92019,9,3.5,32.776012,-116.880634
Oregon House Disc Golf Course,Oregon House,California,United States,95962,18,0,39.344757,-121.264517
Oxford Circle Park,Davis,California,United States,95616,9,1.25,38.554133,-121.798467
Pacific Crest Trail Disc Golf Course,Kennedy Meadows,California,United States,93527,9,4,36.119622,-118.177124
Palm Desert Disc Golf Course,Palm Desert,California,United States,92260,9,3,33.708012,-116.403627
Palo Cedro Community Park,Palo Cedro,California,United States,96073,9,3,40.603066,-122.186657
Parque De La Raza Disc Golf Course,San Jose,California,United States,95111,9,3.5,37.283111,-121.826245
Penryn Elementary School,Penryn,California,United States,95663,7,4,38.855811,-121.182313
Peregrine Point at Bidwell Park,Chico,California,United States,95928,18,4.25,39.685710,-121.844084
Perry Championship Disc Golf Course,Visalia,California,United States,93277,18,0,36.301334,-119.372586
Perry Outback Disc Golf Course,Visalia,California,United States,93277,18,0,36.301334,-119.372586
Pine Summit Camp Disc Golf,Big Bear Lake,California,United States,92315,9,0,34.232796,-116.902863
Pinto Lake Disc Golf Course,Watsonville,California,United States,95076,18,4.2,36.946256,-121.756479
Pioneer Park,Somerset,California,United States,95684,18,3.333335,38.592309,-120.584657
Pioneer Park Disc Golf Course,Quincy,California,United States,95971,9,0,39.940063,-120.891328
Planada Elementary School Disc Golf Course,Planada,California,United States,95365,9,0,37.331113,-120.294817
Pomolita Middle School,Ukiah,California,United States,95482,9,0,39.135023,-123.259338
Prado Regional Park Disc Golf Course,Chino,California,United States,91708,18,3.75,33.952902,-117.639325
Preisker Disc Golf Course,Santa Maria,California,United States,93458,18,3,34.959340,-120.490081
Prewett Park,Antioch,California,United States,94531,9,3,37.965765,-121.775818
Pug Ugly Mine Disc Golf at Quinones Park,San Andreas,California,United States,95249,18,2,38.189115,-120.638708
Rabbit Flats Disc Golf Course,Thousand Oaks,California,United States,91360,18,2.75,34.212805,-118.882179
Ralph M. Lewis Park,Rancho Cucamonga,California,United States,91730,7,0,34.100970,-117.578820
Rancho Corralitos,Watsonville,California,United States,95076,18,0,36.946256,-121.756479
Rancho Jurupa Park,Riverside,California,United States,92509,9,0,34.003266,-117.442004
Rancho Murieta Disc Golf Course,Rancho Murieta,California,United States,95683,18,0,38.511992,-121.096261
Randy Hatfield Disc Golf Course,Crescent City,California,United States,95531,9,0,41.819578,-124.065667
Red Hawk Ridge,Rancho Corralitos,California,United States,95076,18,0,36.946256,-121.756479
Redwood Christian Park,Boulder Creek,California,United States,95006,8,0,37.171267,-122.149524
Redwood Coast Rec Center,Gualala,California,United States,95445,18,3,38.832520,-123.472532
Regency Community Park,Sacramento,California,United States,95835,9,1.666665,38.670649,-121.525983
Reichmuth Park,Sacramento,California,United States,95831,9,2,38.493966,-121.529188
Reidy Creek Disc Golf,Escondido,California,United States,92026,18,4,33.212444,-117.116098
Rick's Revenge,Bear Valley,California,United States,95223,18,3,38.433968,-119.968436
River Oaks Golf Course,Ceres,California,United States,95307,18,0,37.554269,-120.951523
River Walk,Corona,California,United States,92880,7,3.166665,33.925311,-117.607297
Riverbend Community Park,Jurupa Valley,California,United States,91752,9,0,33.996484,-117.531269
Riverbend Park - North,Oroville,California,United States,95965,18,3,39.593945,-121.581363
Riverbend Park - South,Oroville,California,United States,95965,18,2,39.593945,-121.581363
Riverview Park,Bakersfield,California,United States,93308,9,0,35.621087,-118.789677
Rocklin Disc Golf Course at Johnson Springview Park,Rocklin,California,United States,95677,18,3.8,38.791075,-121.234854
Rosa Park,Santa Rosa,California,United States,95403,9,0,38.503685,-122.754057
Ryan Ranch Disc Golf Course,Monterey,California,United States,93940,29,4.142855,36.574690,-121.840854
Sacramento River RV Park,Redding,California,United States,96002,18,0,40.527834,-122.318749
Salmon River Disc Golf Course,Cecilville,California,United States,96031,18,0,41.186066,-123.181796
San Lauren Park,Bakersfield,California,United States,93312,9,4,35.393478,-119.120460
Santa Anita Park Youth Disc Golf Course,Sacramento,California,United States,95825,9,3,38.591897,-121.408467
Santa Margarita KOA Disc Golf Course,Santa Margarita,California,United States,93453,9,0,35.303925,-120.256566
Sapwi Trails,Thousand Oaks,California,United States,91360,19,4.666665,34.212805,-118.882179
Scotts Valley High School Circuit,Scotts Valley,California,United States,95066,4,0,37.067917,-122.013995
Sea Pines Golf Resort,Los Osos,California,United States,93402,9,4,35.295232,-120.835468
Sequoia Park,Simi Valley,California,United States,93063,9,2.666665,34.308729,-118.687223
Shady Oaks Park,Sacramento (Orangevale),California,United States,95662,18,4.666665,38.689174,-121.218435
Shady Rest DiscGolfPark,Mammoth Lakes,California,United States,93546,18,0,37.548799,-118.839818
Shady Rest Park Disc Golf Course,Mammoth Lakes,California,United States,93546,18,0,37.548799,-118.839818
Shastice Park,Mount Shasta,California,United States,96067,18,0,41.314337,-122.380798
Sherwood Forest,Chico,California,United States,95928,9,3,39.685710,-121.844084
Sierra College Truckee,Truckee,California,United States,96161,18,5,39.313089,-120.207783
Sierra Vista Disc Golf Course,Oakhurst,California,United States,93644,9,0,37.377787,-119.632385
Silver Creek Park,Bakersfield,California,United States,93313,9,0,35.163190,-119.046322
Simpson University,Redding,California,United States,96003,9,0,40.751937,-122.230678
Sinsheimer Park Disc Golf Course,San Luis Obispo,California,United States,93401,9,2,35.235750,-120.615973
Sisquoc Elementary,Santa Maria,California,United States,93454,5,0,34.923013,-120.259463
Skull Mountain,Somerset,California,United States,95684,20,0,38.592309,-120.584657
Sky High Disc Golf Course at Mtn. High North,Wrightwood,California,United States,93563,27,4.666665,34.402521,-117.766066
Skyline Disc Golf Course,Susanville,California,United States,96130,18,0,40.551757,-120.675673
Skyline Wilderness Park,Napa,California,United States,94559,18,4.333335,38.245724,-122.313405
Skyline Wilderness Park - Flat 9,Napa,California,United States,94559,9,0,38.245724,-122.313405
South Gate Golf Course,South Gate,California,United States,90280,9,0,33.944159,-118.192761
South Pines Disc Golf Course,Magalia,California,United States,95954,18,0,39.884654,-121.586789
Southern Humboldt Community Park,Garberville,California,United States,95542,18,0,40.080405,-123.783948
Squaw Valley Disc Golf Course at High Camp,Olympic Valley,California,United States,96146,18,0,39.198047,-120.237787
Squirrel Creek at Condon Park,Grass Valley,California,United States,95945,18,4.5,39.196387,-120.972289
Stafford Lake County Park,Novato,California,United States,94947,23,4.75,38.112166,-122.634384
Stampede Disc Golf Course,Truckee,California,United States,96161,18,5,39.313089,-120.207783
Steelhead Disc Golf Course at Creekside,Willow Creek,California,United States,95573,18,0,40.914926,-123.668723
Stony Gorge Disc Golf Course,Elk Creek,California,United States,95939,18,0,39.571982,-122.580827
Strother Park,Arroyo Grande,California,United States,93420,4,0,35.176043,-120.476694
Sunbeam Lake Disc Golf,Seeley,California,United States,92273,9,0,32.817225,-115.700076
Sunset Park,San Marcos,California,United States,92078,6,2,33.117154,-117.180627
Swenson Park Disc Golf Course,Stockton,California,United States,95207,18,5,38.002125,-121.324979
Sycamore Park Disc Golf Course,Simi Valley,California,United States,93065,12,0,34.258405,-118.775026
Sylmar (Veterans Park),Sylmar,California,United States,91342,18,4.125,34.326584,-118.382261
Tahoe Vista Regional Disc Golf Course,Tahoe Vista,California,United States,96148,18,4.75,39.249050,-120.060428
Tanner Nash Disc Golf Course at Rancho Acacias,Murrieta,California,United States,92562,9,3,33.547613,-117.344040
Taylor Mountain Disc Golf Course,Santa Rosa,California,United States,95404,18,5,38.525733,-122.690443
The Barnyard Disc Golf Course,Carmel,California,United States,93923,4,0,36.448672,-121.849502
The Brewing Lair,Blairsden,California,United States,96103,9,3,39.805588,-120.665978
The Gates of Hell Disc Golf Course,Valley Center,California,United States,92082,18,0,33.253548,-117.003366
The Ranch at Old River,Tracy,California,United States,95304,20,0,37.671103,-121.406559
The Redwood Curtain at Humboldt State University,Arcata,California,United States,95521,18,4.5,40.855694,-124.066898
The Stadium Course at Natividad Creek Park,Salinas,California,United States,93905,18,4,36.682351,-121.605904
Thousand Pines Camp Disc Golf Course - Lower,Crestline,California,United States,92325,9,0,34.243482,-117.281304
Thousand Pines Camp Disc Golf Course - Upper,Crestline,California,United States,92325,9,0,34.243482,-117.281304
Three Links Camp Disc Golf Course,Mi-Wuk Village,California,United States,95346,18,4,38.065529,-120.170699
Toney's Mountain Golf,Grass Valley,California,United States,95959,18,0,39.347811,-120.918728
Treeline Camp Alta Disc Golf Course,Alta,California,United States,95701,9,2,39.226549,-120.767022
Troy Korsgaden Disc Golf Course,Visalia,California,United States,93292,12,0,36.375590,-119.211689
Truckee River Regional Park,Truckee,California,United States,96161,18,4.6,39.313089,-120.207783
Turtle Rock Park Disc Golf,Markleeville,California,United States,96120,18,4,38.743384,-119.867624
Twain Harte Disc Golf Course,Twain Harte,California,United States,95383,18,0,38.112760,-120.225746
Two Harbors,Two Harbors,California,United States,90704,10,3.5,33.399248,-118.435601
U.C. Santa Cruz,Santa Cruz,California,United States,95064,9,1,36.991107,-122.059022
UCLA Lake Arrowhead Disc Golf Course,Lake Arrowhead,California,United States,92352,4,0,34.259971,-117.199381
University of OB,Weed,California,United States,96094,18,3.5,41.456579,-122.469367
University of Redlands,Redlands,California,United States,92374,9,0,34.067146,-117.171885
UTT Middle School,Tustin,California,United States,92780,9,0,33.734005,-117.819163
Valle Vista Disc Golf Course,Hemet,California,United States,92544,5,0,33.648169,-116.895308
Valley Center Community Church Park,Valley Center,California,United States,92082,9,0,33.253548,-117.003366
Van Buren Golf Center,Riverside,California,United States,92503,18,0,33.882579,-117.442303
Vandenberg AFB,Vandenberg Air Force Base,California,United States,93437,18,0,34.737964,-120.543739
Villa Maria Disc Golf Course,Cupertino,California,United States,95014,12,4,37.306491,-122.080640
Vinsonhaler Park,Orland,California,United States,95963,9,3,39.736308,-122.259338
Walden Park Disc Golf Course,Walnut Creek,California,United States,94597,9,3,37.918191,-122.071665
Waller Park,Santa Maria,California,United States,93455,27,4.5,34.831792,-120.433509
Warner Street Park,Alturas,California,United States,96101,9,0,41.452711,-120.538460
Weddington Golf and Tennis,Studio City,California,United States,91604,9,0,34.140822,-118.392864
Westport Disc Golf Course,Westport,California,United States,95488,9,5,39.683707,-123.741609
Westside Park,Wasco,California,United States,93280,9,0,35.652242,-119.446400
Whale Rock Disc Golf Course,Templeton,California,United States,93465,18,4.5,35.538809,-120.739893
White Pines Park Disc Golf Course,Arnold,California,United States,95223,18,3,38.433968,-119.968436
Whittier Narrows Park,South El Monte,California,United States,91733,27,3.285715,34.046243,-118.053748
Willows Rotary Disc Golf,Willows,California,United States,95988,19,2.5,39.491654,-122.262080
Woodward Legacy Disc Golf Course,Fresno,California,United States,93720,18,3,36.862209,-119.760793
Wrightwood Country Club,Wrightwood,California,United States,92397,18,0,34.374009,-117.628429
YMCA Camp Campbell,Boulder Creek,California,United States,95006,9,5,37.171267,-122.149524
YMCA Camp Oakes,Big Bear Lake,California,United States,92314,9,0,34.261092,-116.809496
YMCA Camp Whittle,Fawnskin,California,United States,92333,9,0,34.270601,-116.949309
Yucaipa Regional Park Disc Golf Course,Yucaipa,California,United States,92399,18,4,34.032301,-117.010574
Zalud Park,Porterville,California,United States,93257,9,0,35.988087,-118.860221
10-3 at CB,Mt. Crested Butte,Colorado,United States,81225,27,4,38.966452,-106.926271
Adams Hollow,Brighton,Colorado,United States,80601,18,3.5,39.962027,-104.807809
Aggie Greens at Hughes Stadium,Ft. Collins,Colorado,United States,80521,18,3,40.594597,-105.127416
Alamosa Disc Golf Course,Alamosa,Colorado,United States,81101,18,4,37.481245,-105.833213
Ames Park,Mead,Colorado,United States,80542,9,4,40.235081,-104.999386
Arapahoe Basin Disc Golf Course,Dillon,Colorado,United States,80435,18,0,39.573695,-105.934609
Arapahoe Community College,Littleton,Colorado,United States,80120,9,0,39.593836,-105.011460
Aspen Crossing Elementary School,Aurora,Colorado,United States,80015,7,0,39.627320,-104.779035
Aspen Mountain,Aspen,Colorado,United States,81611,18,4,39.158172,-106.668560
Aspen Springs,Aspen Springs,Colorado,United States,81147,9,0,37.322856,-107.085622
Bailey Disc Golf Course,Bailey,Colorado,United States,80421,20,4.5,39.460932,-105.501199
Baldridge Park,Montrose,Colorado,United States,81401,18,3,38.484153,-107.772919
Beaver Creek Resort,Avon,Colorado,United States,81620,18,3,39.595601,-106.513435
Beaver Meadows Resort Ranch,Red Feather Lakes,Colorado,United States,80545,18,3.5,40.874586,-105.637727
Beaver Ranch - Bluebird Putting Course,Conifer,Colorado,United States,80433,20,4,39.477721,-105.262386
Beaver Ranch - Conifer,Conifer,Colorado,United States,80433,21,4.583335,39.477721,-105.262386
Benedict Park,Brighton,Colorado,United States,80601,9,3,39.962027,-104.807809
Bennett High School Disc Golf Course,Bennett,Colorado,United States,80102,9,0,39.745990,-104.442841
Bert & Ernie Park,Carbondale,Colorado,United States,81623,9,2,39.246580,-107.162855
Big Mine Disc Golf Course,Crested Butte,Colorado,United States,81224,9,0,38.879715,-106.933212
Bird's Nest Disc Park,Arvada,Colorado,United States,80007,24,3.4,39.862519,-105.192405
Boltz Jr. High School,Fort Collins,Colorado,United States,80525,9,3,40.529861,-105.036641
Boulder Valley Community Course,Boulder,Colorado,United States,80303,9,0,39.973222,-105.209276
BuckSnort,Pine,Colorado,United States,80470,27,5,39.379793,-105.324404
Buena Vista Disc Golf Course,Buena Vista,Colorado,United States,81211,9,5,38.973327,-106.381258
Cache La Poudre Jr. High Disc Golf Course,Laporte,Colorado,United States,80535,9,2.5,40.732954,-105.183846
Caddoa Disc Golf Course,Hasty,Colorado,United States,81044,18,0,37.859663,-102.947678
Camenisch Park - Badlands,Federal Heights,Colorado,United States,80260,18,2.75,39.866918,-105.006059
Camenisch Park - The Hylands,Denver,Colorado,United States,80260,18,0,39.866918,-105.006059
Centennial Park Course,Cortez,Colorado,United States,81321,18,0,37.312970,-108.734537
Central Park Disc Golf Course,Firestone,Colorado,United States,80504,18,0,40.163388,-105.030087
Centre Hills Park,Aurora,Colorado,United States,80011,18,2.5,39.738764,-104.782159
Challenger Point Disc Golf Course,Crestone,Colorado,United States,81131,9,0,37.865412,-105.679141
Cherokee Trail Disc Golf Course,Parker,Colorado,United States,80134,9,2,39.485499,-104.778638
Cheyenne Mountain State Park,Colorado Springs,Colorado,United States,80926,9,0,38.634733,-104.903006
Civic Center Disc Golf Course,West Pueblo,Colorado,United States,81007,9,0,38.360042,-104.773198
Clark Centennial Park,Longmont,Colorado,United States,80504,9,4,40.163388,-105.030087
Clay Hills Disc Golf Course,La Junta,Colorado,United States,81050,9,0,37.942354,-103.515160
Cloman Park,Pagosa Springs,Colorado,United States,81147,18,4,37.322856,-107.085622
Colorado Christian University,Lakewood,Colorado,United States,80226,9,0,39.712845,-105.091519
Colorado Mesa University Disc Golf,Grand Junction,Colorado,United States,81501,9,5,39.071848,-108.547131
Colorado Mountain College - Leadville,Leadville,Colorado,United States,80461,18,4,39.231742,-106.313157
Colorado Mountain College Spring Valley,Glenwood Springs,Colorado,United States,81601,18,0,39.601304,-107.304388
Colorado NW Community College,Rangely,Colorado,United States,81648,9,2,39.940221,-108.665369
Confluence Disc Golf Course,Delta,Colorado,United States,81416,18,0,38.752074,-108.136959
Cottonwood Creek Park,Colorado Springs,Colorado,United States,80918,18,3.333335,38.910393,-104.780362
Cowboy Course,Swink,Colorado,United States,81077,18,0,38.017621,-103.630845
Cross Creek Disc Golf Course,Gypsum,Colorado,United States,81637,18,5,39.777824,-107.105819
CSU Pueblo,Pueblo,Colorado,United States,81001,18,0,38.295719,-104.533434
Cumberland Green,Fountain,Colorado,United States,80817,18,4,38.638580,-104.686472
Dakota Ridge High School,Littleton,Colorado,United States,80127,9,0,39.530726,-105.164344
Delta County Fairgrounds,Hotchkiss,Colorado,United States,81419,18,0,38.881231,-107.745058
Devil's Thumb Ranch Resort and Spa,Tabernash,Colorado,United States,80482,18,0,39.897522,-105.785797
DiscZilla Sports Disc Golf Course,Peyton,Colorado,United States,80831,9,0,38.994216,-104.490669
Double Cabin Disc Golf Course,Mountain Village,Colorado,United States,81435,18,0,37.908208,-107.860545
Dragons Breath,Denver,Colorado,United States,80235,18,0,39.647607,-105.089482
Dreamtime Ranch,Hartsel,Colorado,United States,80449,21,0,38.976576,-105.856797
Dreamtime Ranch,Hartsel,Colorado,United States,80432,21,0,39.222372,-105.796893
Dry Creek Disc Golf Course,Longmont,Colorado,United States,80503,18,2,40.169014,-105.210376
Dry Creek Disc Golf Course,Hayden,Colorado,United States,81639,9,0,40.506919,-107.239230
Durango Mountain Resort,Durango,Colorado,United States,81301,9,0,37.441078,-107.852781
Easter Seals Disc Golf Course,Empire,Colorado,United States,80444,27,4,39.608406,-105.750988
Edora Park,Fort Collins,Colorado,United States,80525,18,4.333335,40.529861,-105.036641
Elk Hill Disc Golf,Pagosa Springs,Colorado,United States,81147,9,0,37.322856,-107.085622
Epple Park,Greeley,Colorado,United States,80631,6,3.25,40.442868,-104.673072
Estates Park,Golden,Colorado,United States,80401,18,0,39.718726,-105.236031
Expo Park,Aurora,Colorado,United States,80012,18,3.42857,39.699735,-104.837643
Falcon Elementary School of Tech,Peyton,Colorado,United States,80831,9,0,38.994216,-104.490669
Fehringer Ranch Park,Denver,Colorado,United States,80235,18,3.5,39.647607,-105.089482
Fire Mountain Disc Golf Course,New Castle,Colorado,United States,81647,18,0,39.610533,-107.566625
Flatirons West Gold Tees,Boulder,Colorado,United States,80303,18,0,39.973222,-105.209276
Fort Carson Outdoor Recreation,Fort Carson,Colorado,United States,80913,9,1.5,38.687472,-104.748776
Fort Collins High School Disc Golf Course,Fort Collins,Colorado,United States,80525,9,3.333335,40.529861,-105.036641
Fort Lewis College,Durango,Colorado,United States,81301,18,2,37.441078,-107.852781
Fossil Ridge High School,Fort Collins,Colorado,United States,80528,9,0,40.494596,-105.004639
Frisco Peak One Disc Golf Course,Frisco,Colorado,United States,80443,27,3.2,39.556393,-106.170245
Front Range Christian School Disc Golf Course,Littleton,Colorado,United States,80128,9,0,39.563846,-105.079066
Fruita Riverfront Park Disc Golf Course,Fruita,Colorado,United States,81521,18,0,39.130597,-108.806395
Gateway Canyons Resort Disc Golf,Gateway,Colorado,United States,81522,18,0,38.618218,-108.913333
Ghost Town,Russell Gulch,Colorado,United States,80427,20,4.285715,39.780281,-105.494960
Golden Bell Camp Disc Golf Course,Divide,Colorado,United States,80814,18,0,38.959653,-105.194278
Golden Eagle Disc Golf Course at Buckhorn Canyon,Bellvue,Colorado,United States,80512,18,5,40.631157,-105.574043
Grand Park Disc Golf Course,Fraser,Colorado,United States,80482,18,3,39.897522,-105.785797
Green Valley Ranch Disc Golf Course,Denver,Colorado,United States,80249,18,3.5,39.854746,-104.695804
Gunnison Elementary Disc Golf Course,Gunnison,Colorado,United States,81230,14,0,38.395065,-106.953683
Harlow Platts Park,Boulder (South Boulder),Colorado,United States,80303,9,3.333335,39.973222,-105.209276
Harrison School Disc Golf Course,Canon City,Colorado,United States,81212,9,0,38.535754,-105.398394
Haybro Red Tail Disc Golf Course,Steamboat Springs,Colorado,United States,80467,18,5,40.206871,-106.825671
Heritage Disc Golf Course,Fort Collins,Colorado,United States,80526,6,3,40.518836,-105.143224
Hesperus Camp DIsc Golf,Hesperus,Colorado,United States,81326,9,0,37.156378,-108.187079
Hewlett-Packard Disc Golf Course,Fort Collins,Colorado,United States,80528,9,0,40.494596,-105.004639
Highland Elementary School,Centennial,Colorado,United States,80121,9,0,39.610714,-104.949039
Hillside at CMC,Steamboat Springs,Colorado,United States,80487,9,2.333335,40.540952,-106.850132
Hole in the Sky Disc Golf Course,Eagle,Colorado,United States,81631,18,4,39.629385,-106.750040
Holmes Middle School,Colorado Springs,Colorado,United States,80904,5,0,38.860829,-104.876163
Homesteaders Park,Holyoke,Colorado,United States,80734,9,0,40.519891,-102.291952
Interlocken (East Park),Broomfield,Colorado,United States,80020,9,3.333335,39.930782,-105.074287
Jenkins Middle School,Colorado Springs,Colorado,United States,80923,9,0,38.926861,-104.714813
Johnny Roberts Disc Golf Course,Arvada,Colorado,United States,80004,18,4.1,39.817202,-105.123954
Ken Caryl Disc Golf Course,Littleton,Colorado,United States,80127,9,3,39.530726,-105.164344
Kendall Mountain Disc Golf Course,Silverton,Colorado,United States,81433,9,0,37.765269,-107.586247
Lake Creek Village Apartments,Edwards,Colorado,United States,81632,9,1.5,39.629202,-106.607633
Lake Dillon Disc Golf Course,Dillon,Colorado,United States,80435,18,3,39.573695,-105.934609
Lake Estes Disc Golf Course,Estes Park,Colorado,United States,80517,9,0,40.384744,-105.586376
Lakewood Dry Gulch,Denver,Colorado,United States,80204,21,0,39.734837,-105.020395
Lancer Links at Lincoln Middle School,Fort Collins,Colorado,United States,80521,9,4,40.594597,-105.127416
Lawson Adventure Park,Dumont,Colorado,United States,80436,18,0,39.780974,-105.640117
Liberty Pines Disc Golf Course,Woodland Park,Colorado,United States,80863,18,0,39.019995,-105.113586
Lion's Den Disc Golf Course,Lake George,Colorado,United States,80827,18,5,39.056483,-105.467359
Little Salt Wash Park,Fruita,Colorado,United States,81521,9,3,39.130597,-108.806395
Loomiller,Longmont,Colorado,United States,80501,9,3,40.164837,-105.103179
Loudy Simpson Park Disc Golf Course,Craig,Colorado,United States,81625,9,3,40.745223,-107.694794
Louisville Meadows,Louisville,Colorado,United States,80027,5,0,39.950806,-105.159495
Mark of the Devil Disc Golf Course,Cimarron,Colorado,United States,81220,20,0,38.308243,-107.480574
Martin Walworth Disc Golf at Grace Presbyterian Church,Highlands Ranch,Colorado,United States,80125,9,0,39.485069,-105.052316
Matchett Park,Grand Junction,Colorado,United States,81506,18,3.333335,39.123368,-108.531757
Matney Park,Castle Rock,Colorado,United States,80104,18,2.5,39.276134,-104.832238
Mehaffey Park,Loveland,Colorado,United States,80538,9,2,40.457521,-105.050761
Merino High School,Merino,Colorado,United States,80741,9,0,40.567222,-103.476943
Mount Massive Disc Golf Course,Leadville,Colorado,United States,80461,9,5,39.231742,-106.313157
Mountain View Adventure Park,Cripple Creek,Colorado,United States,80813,18,0,38.805388,-105.158500
Mountain Vista High School Disc Golf Course,Highlands Ranch,Colorado,United States,80126,9,0,39.540572,-104.958557
Mountaineer Disc Golf Course,Gunnison,Colorado,United States,81230,18,3,38.395065,-106.953683
Nick Naples' Soaring Eagles Disc Golf Course,Woodland Park,Colorado,United States,80863,9,3,39.019995,-105.113586
North Midway Park,Broomfield,Colorado,United States,80020,9,2,39.930782,-105.074287
Optimist Disc Golf Course,Fort Morgan,Colorado,United States,80701,27,4,40.165309,-103.870735
Ordway Disc Golf Course,Ordway,Colorado,United States,81063,9,0,38.430710,-103.771060
Oxbow Disc Golf Course,Windsor,Colorado,United States,80550,12,4,40.484657,-104.900983
Palomino Park Apartments,Highlands Ranch,Colorado,United States,80130,9,0,39.530958,-104.923416
Pessimist DiscGolfPark,Fort Morgan,Colorado,United States,80701,18,0,40.165309,-103.870735
Peterson Air Force Base,Colorado Springs,Colorado,United States,80929,9,0,38.824710,-104.626967
Phantom Falls Disc Golf Course,Pine,Colorado,United States,80470,30,4.25,39.379793,-105.324404
Pioneer Park Disc Golf Course,Evans,Colorado,United States,80620,9,2.666665,40.373756,-104.717482
Pioneer Park Disc Golf Course,Hot Sulphur Springs,Colorado,United States,80451,18,3.5,40.098446,-106.073143
Pioneer Park Disc Golf Course,Sterling,Colorado,United States,80751,18,3,40.636880,-103.232406
Poncha Springs,Poncha Springs,Colorado,United States,81201,18,4.666665,38.554832,-106.066038
Prickly Pines,Elizabeth,Colorado,United States,80107,18,4,39.409358,-104.572571
Pueblo City Park,Pueblo,Colorado,United States,81005,18,4.25,38.197683,-104.810446
Rampart Disc Golf Course,Colorado Springs,Colorado,United States,80920,18,0,38.957598,-104.770770
Regis University Disc Golf Course,Denver,Colorado,United States,80221,9,0,39.817067,-105.011035
Reservoir Hill,Pagosa Springs,Colorado,United States,81147,18,4,37.322856,-107.085622
Rio Grande River Retreat,Monte Vista,Colorado,United States,81132,18,5,37.711322,-106.429077
River Ranch Disc Golf Course,Johnstown,Colorado,United States,80534,18,2.8,40.331863,-104.937467
Riverbend Park,Palisade,Colorado,United States,81526,19,4,39.096926,-108.334424
Rockin' The Rails,Palmer Lake,Colorado,United States,80133,18,4,39.096847,-104.980513
Round Top Mountain Park,Lake City,Colorado,United States,81235,18,0,38.012835,-107.299418
Runyon Elementary School,Littleton,Colorado,United States,80120,9,0,39.593836,-105.011460
Sand Creek Disc Golf Course,Colorado Springs,Colorado,United States,80915,9,0,38.849797,-104.717043
Sandburg Elementary School,Centennial,Colorado,United States,80122,9,0,39.580309,-104.954917
Shining Mountain - Main,Woodland Park,Colorado,United States,80863,18,0,39.019995,-105.113586
Shining Mountain - Serenity Pines,Woodland Park,Colorado,United States,80863,18,0,39.019995,-105.113586
Shining Mountain - Whispering Pines,Woodland Park,Colorado,United States,80863,18,0,39.019995,-105.113586
Silver Spur Disc Golf Course,Steamboat Springs,Colorado,United States,80487,18,0,40.540952,-106.850132
Singletree Disc Golf Course,Edwards,Colorado,United States,81632,9,0,39.629202,-106.607633
Skol Ranch Disc Golf Course,Florissant,Colorado,United States,80816,18,0,38.857741,-105.315864
Sky Ranch Lutheran Camp,Bellvue,Colorado,United States,80512,18,0,40.631157,-105.574043
Skyline/PCC,Canon City,Colorado,United States,81212,9,2.5,38.535754,-105.398394
Snow Mountain Ranch YMCA,Tabernash,Colorado,United States,80478,18,4,40.029019,-105.852772
Snowmass Ski Resort Red Disc Golf Course,Snowmass Village,Colorado,United States,81615,18,0,39.220609,-106.929297
Snowmass Ski Resort Yellow Disc Golf Course,Snowmass Village,Colorado,United States,81615,18,0,39.220609,-106.929297
South Fork Disc Golf Course,South Fork,Colorado,United States,81154,18,0,37.575406,-106.603809
Southside Park,Trinidad,Colorado,United States,81082,9,3,37.181854,-104.518043
Springvale Park Disc Golf,Thornton,Colorado,United States,80602,18,3,39.966363,-104.908709
Stonegate Village Disc Golf Course,Parker,Colorado,United States,80134,10,0,39.485499,-104.778638
Stoney Ridge DGC,Silt,Colorado,United States,81652,13,0,39.485172,-107.654716
Sundance Trail Ranch Disc Golf Course,Red Feather Lakes,Colorado,United States,80545,18,4,40.874586,-105.637727
Sunlight Mountain Resort,Glenwood Springs,Colorado,United States,81601,18,0,39.601304,-107.304388
Superior Rock Creek,Superior,Colorado,United States,80027,9,0,39.950806,-105.159495
Tall Grass Disc Golf Course,Aurora,Colorado,United States,80013,9,2,39.661404,-104.765658
Tamarac Park,Delta,Colorado,United States,81416,9,0,38.752074,-108.136959
The Aviary Disc Golf Course,Colorado Springs,Colorado,United States,80906,18,3.5,38.752602,-104.878232
The Dock,Aurora,Colorado,United States,80011,9,0,39.738764,-104.782159
The Outback Disc Golf Course,Greeley,Colorado,United States,80634,18,4,40.403315,-104.792917
Thompson Valley High School,Loveland,Colorado,United States,80537,9,1.5,40.363199,-105.176682
Thunderhead Disc Golf Course,Steamboat Springs,Colorado,United States,80477,19,4,40.486391,-106.829354
ThunderRidge High School,Highlands Ranch,Colorado,United States,80129,9,0,39.545535,-105.010351
Timberline Academy Disc Golf Course,Durango,Colorado,United States,81301,18,0,37.441078,-107.852781
Town of Olathe Disc Golf Course,Olathe,Colorado,United States,81425,18,0,38.493599,-108.247485
Twisted Cedars Disc Golf Course,Trinidad,Colorado,United States,81082,27,0,37.181854,-104.518043
Two Mile High Disc Golf Course,Fairplay,Colorado,United States,80440,18,0,39.228920,-105.969828
Ultra DiscGolfPark - Anheuser-Busch Biergarten,Fort Collins,Colorado,United States,80524,18,0,40.646857,-105.029513
Valmont Disc Park,Boulder,Colorado,United States,80301,18,4.333335,40.049468,-105.201421
Village Greens Park,Greenwood Village,Colorado,United States,80111,18,3.5,39.613005,-104.877957
Wahatoya Valley,La Veta,Colorado,United States,81055,18,0,37.491667,-105.111560
Walnut Hills Park,Centennial,Colorado,United States,80122,9,0,39.580309,-104.954917
Walt Clark Middle School,Loveland,Colorado,United States,80537,9,0,40.363199,-105.176682
Waneka Lake Disc Golf Course,Lafayette,Colorado,United States,80026,9,4,40.012251,-105.099757
Watrous Disc Golf,Brush,Colorado,United States,80723,9,3,40.193773,-103.543331
Watson Island DIsc Golf Course,Grand Junction,Colorado,United States,81501,18,5,39.071848,-108.547131
Wellington East 9 Disc Golf,Wellington,Colorado,United States,80549,9,3,40.857579,-105.044150
Wellington West 9 Disc Golf,Wellington,Colorado,United States,80549,9,3.5,40.857579,-105.044150
West Fork Disc Golf Course,Highlands Ranch,Colorado,United States,80124,18,0,39.532889,-104.891089
Westcreek Disc Golf Course,Parker,Colorado,United States,80134,18,0,39.485499,-104.778638
Westlake Park,Grand Junction,Colorado,United States,81501,5,2,39.071848,-108.547131
Westminster Disc Golf Course,Westminster,Colorado,United States,80020,18,3.666665,39.930782,-105.074287
Widefield Park,Colorado Springs,Colorado,United States,80911,18,3.5,38.752916,-104.723477
Willow Creek Park,Lamar,Colorado,United States,81052,9,3,37.918016,-102.639554
Winter Park Resort,Winter Park,Colorado,United States,80482,21,4,39.897522,-105.785797
Wondervu Disc Golf Course,Golden,Colorado,United States,80473,18,0,40.416393,-106.134369
Wright's Mesa Disc Golf Course,Norwood,Colorado,United States,81423,9,0,38.023159,-108.372470
Wyndham Pagosa,Pagosa Springs,Colorado,United States,81147,6,0,37.322856,-107.085622
YMCA of the Rockies,Estes Park,Colorado,United States,80517,18,3,40.384744,-105.586376
Beaver Branch,Townsend,Delaware,United States,19734,18,0,39.381644,-75.653322
Bellevue State Park,Wilmington,Delaware,United States,19809,18,2,39.757786,-75.500953
Brandywine Creek State Park,Wilmington,Delaware,United States,19803,18,4.333335,39.800665,-75.542415
Canby West,Wilmington,Delaware,United States,19804,18,0,39.716862,-75.617677
Cape Henlopen State Park,Lewes,Delaware,United States,19958,19,5,38.728722,-75.168469
Dover Park,Dover,Delaware,United States,19901,9,0,39.181546,-75.473517
Greenridge Disc Golf Course,Newark,Delaware,United States,19711,19,0,39.713598,-75.741073
Iron Hill,Newark,Delaware,United States,19702,18,4.5,39.618200,-75.729724
Killens Pond State Park,Felton,Delaware,United States,19943,18,0,39.004436,-75.606986
Lums Pond State Park,Bear,Delaware,United States,19701,18,0,39.583171,-75.700899
Tony Silicato Memorial Park,Milford,Delaware,United States,19963,9,1,38.943253,-75.362567
Trap Pond State Park,Laurel,Delaware,United States,19956,18,0,38.547715,-75.538158
White Clay Creek State Park,Newark,Delaware,United States,19711,18,0,39.713598,-75.741073
22nd St. Park,Tampa,Florida,United States,33610,9,3.5,27.998214,-82.378016
65th Infantry Veterans Disc Golf Course,Kissimmee,Florida,United States,34743,18,5,28.329308,-81.355152
A.L. Kinsaul Park,Lynn Haven,Florida,United States,32444,9,0,30.239945,-85.651600
Airport Lakes Disc Golf Course,Orlando,Florida,United States,32812,9,3.5,28.483991,-81.322838
Alligator Lake Disc Golf Course,Lake City,Florida,United States,32025,9,2,30.107103,-82.579118
Amelia Earhart Park,Hialeah,Florida,United States,33013,18,3,25.862190,-80.269677
Ann Dever Park,Englewood,Florida,United States,34224,18,5,26.917571,-82.303940
Avalon Park,Orlando,Florida,United States,32828,9,1,28.529031,-81.166578
Azalea Park Disc Golf,Saint Petersburg,Florida,United States,33710,9,5,27.790669,-82.730734
Bamford Sports Complex,Davie,Florida,United States,33328,6,3,26.068175,-80.274812
Barnett Park - North,Orlando,Florida,United States,32808,18,3.333335,28.580110,-81.444300
Barnett Park - Parkside,Orlando,Florida,United States,32808,18,3,28.580110,-81.444300
Bay Memorial Park,Panama City,Florida,United States,32401,9,0,30.159737,-85.660922
Bay Oaks Disc Golf Course,Fort Myers Beach,Florida,United States,33931,14,2,26.433124,-81.902995
Bill Frederick Park at Turkey Lake: The Original,Orlando,Florida,United States,32835,18,4,28.518730,-81.486227
Bill Frederick Park at Turkey Lake: The Woods,Orlando,Florida,United States,32835,18,4,28.518730,-81.486227
Bill Frederick Park; T2-The Turkeynator,Orlando,Florida,United States,32835,18,4,28.518730,-81.486227
Bird Bay Disc Golf Course,Venice,Florida,United States,34285,18,3,27.094564,-82.440895
Blue Angel Park - Oaks Disc Golf Course,Pensacola,Florida,United States,32506,18,4.5,30.391628,-87.369394
Blue Angel Park - Palmetto Disc Golf Course,Pensacola,Florida,United States,32506,18,4,30.391628,-87.369394
Blue Angel Park - Pines Disc Golf Course,Pensacola,Florida,United States,32506,18,4,30.391628,-87.369394
Bob Gardner Park,Lakewood Ranch,Florida,United States,34211,9,4.5,27.453604,-82.377071
Boggy Bayou Disc Golf Course,Niceville,Florida,United States,32578,9,4,30.506696,-86.447541
Bonita Springs Recreation Center,Bonita Springs,Florida,United States,34135,18,3.5,26.355541,-81.754320
Boys and Girls Club of Sarasota County,Sarasota,Florida,United States,34237,6,0,27.338992,-82.512645
Brian Piccolo Sports Park,Hollywood,Florida,United States,33024,9,4,26.027148,-80.244713
Buckhorn Park,Valrico,Florida,United States,33596,9,0,27.887215,-82.225870
Cemetery Point Park,Cedar Key,Florida,United States,32625,8,3,29.200616,-83.004494
ChainDragon at The Freeport Sports Complex,Freeport,Florida,United States,32439,18,4.333335,30.468323,-86.112017
Cliff Stephens Park,Clearwater,Florida,United States,33759,21,4.42857,27.975284,-82.701482
Commons Park,Royal Palm Beach,Florida,United States,33411,18,5,26.720012,-80.193151
Community of Hope Church,Loxahatchee,Florida,United States,33470,9,0,26.729431,-80.319858
Cornerstone Baptist Fellowship,Sebastian,Florida,United States,32958,9,0,27.794384,-80.491460
Covenant Disc Golf Course,Palm Bay,Florida,United States,32907,9,0,28.020804,-80.681247
Crossroads Disc Golf Course,New Smyrna Beach,Florida,United States,32168,9,0,28.963773,-81.029413
Crosswynde Disc Golf Course,Tampa,Florida,United States,33619,9,0,27.935372,-82.378690
Cypress Point Park Disc Golf Course,Tampa,Florida,United States,33067,18,4.5,26.305788,-80.223371
Cypress Preserve Park,Sunrise,Florida,United States,33351,9,3,26.179526,-80.275008
DeFunk Disco,DeFuniak Springs,Florida,United States,32433,18,5,30.851178,-86.200838
Diamond Disc Golf Challenge,Pensacola,Florida,United States,32502,9,0,30.409367,-87.223506
Doris Leeper Disc Golf Course,New Smyrna,Florida,United States,32168,18,5,28.963773,-81.029413
Dreher Park,WPB,Florida,United States,33405,18,5,26.669649,-80.058452
Easterlin Park,Ft. Lauderdale,Florida,United States,33309,18,3.75,26.185990,-80.172721
Ed Austin Park (Fore Palms Disc Golf Course),Jacksonville,Florida,United States,32225,24,3.75,30.357756,-81.505829
Edward Medard Disc Golf Park,Plant City,Florida,United States,33567,18,4.333335,27.920609,-82.116772
Embrey-Riddle University Disc Golf Course,Daytona Beach,Florida,United States,32114,9,0,29.192394,-81.046774
Estero Disc Golf Course,Estero,Florida,United States,33928,18,3,26.399034,-81.704725
Extension Park,Cantonment,Florida,United States,32533,9,0,30.610506,-87.326783
F. Burton Smith Park,Cocoa,Florida,United States,32926,23,4,28.388697,-80.818152
Fat Point Brewing,Punta Gorda,Florida,United States,33950,1,0,26.902989,-82.046244
Ferry Park,Fort Walton Beach,Florida,United States,32548,18,3,30.403001,-86.650482
Floral Park,Floral City,Florida,United States,34436,19,4.5,28.720580,-82.297980
Florida State University Reservation,Tallahassee,Florida,United States,32310,9,0,30.385436,-84.512181
Forest Hills Disc Golf and Country Club,Hoiliday,Florida,United States,34690,18,0,28.193745,-82.725706
Forest Park,Port Saint Joe,Florida,United States,32456,9,0,29.838635,-85.298379
Franz Ross Park,Port Charlotte,Florida,United States,33948,9,0,26.985889,-82.151742
FSU Panama City,Panama City,Florida,United States,32405,18,0,30.202068,-85.667403
G T Bray Park Disc Golf Course,Bradenton,Florida,United States,34209,18,0,27.500129,-82.651386
Gator Links at NLA,Milton,Florida,United States,32583,18,4,30.592511,-86.971003
Gordy Road Preserve Disc Golf Course,Fort Pierce,Florida,United States,34945,27,4,27.437265,-80.557230
Halpatiokee Disc Golf Course,Stuart,Florida,United States,34997,10,0,27.055637,-80.270195
Hammock Park,Dunedin,Florida,United States,34698,9,4,28.037553,-82.786320
Havana Springs Resort Disc Golf Course,Havana,Florida,United States,32333,12,0,30.607738,-84.417591
Heritage Park and Gardens Disc Golf Course,Live Oak,Florida,United States,32064,9,0,30.295625,-82.984108
Heritage Park Disc Golf Course,Perry,Florida,United States,32347,9,0,30.174157,-83.611588
Hidden Oaks Disc Golf Course,Lakeland,Florida,United States,33813,18,5,27.965132,-81.939522
Historic Virginia Key Beach Park,Virginia Key,Florida,United States,33149,9,2,25.719513,-80.168541
Hitzman Optimist Disc Golf Course,Pensacola,Florida,United States,32504,9,4,30.472486,-87.186673
Holland Park,New Smyrna Beach,Florida,United States,32168,18,0,28.963773,-81.029413
Holloway Park Disc Golf Course,Lakeland,Florida,United States,33803,18,0,28.009358,-81.932662
Hollyland Park,Holly Hill,Florida,United States,32117,9,3,29.235588,-81.063969
Homestead Air Reserve Park,Homestead,Florida,United States,33032,18,4,25.531517,-80.390800
House of Trees,Newberry,Florida,United States,32669,18,3,29.632156,-82.589919
Jack McLean Park,Tallahassee,Florida,United States,32305,24,0,30.332299,-84.300654
Jonesville Park,Gainesville,Florida,United States,32606,18,4,29.682064,-82.444115
Kathryn Abbey Hanna Park,Jacksonville,Florida,United States,32233,9,2,30.358873,-81.419388
Kendall Indian Hammocks Park (East),Miami (Kendall),Florida,United States,33176,18,2.333335,25.659873,-80.358354
Kendall Indian Hammocks Park (West),Miami (Kendall),Florida,United States,33176,18,3,25.659873,-80.358354
Kenny Dixon Sports Complex,Bushnell,Florida,United States,33513,9,0,28.714262,-82.194963
Kiwanis Hobart Park,Vero Beach,Florida,United States,32967,9,0,27.715491,-80.454288
Lake Aurora Christian Camp,Lake Wales,Florida,United States,33898,18,3,27.840809,-81.372964
Lake Hiawatha Preserve,Clermont,Florida,United States,34711,18,0,28.530496,-81.753341
Lake Okahumpka Park,WIldwood,Florida,United States,34785,9,0,28.837287,-82.040622
Lake Wauburg,Gainesville (Micanopy),Florida,United States,32667,18,3,29.513704,-82.304844
Lakeview Park,Sarasota,Florida,United States,34241,18,3.333335,27.250668,-82.377574
Lakewood Park,"Fort Pierce,",Florida,United States,34952,18,0,27.296128,-80.299313
Lewis Lake Disc Golf at MacDill AFB,Tampa,Florida,United States,33621,12,0,27.841658,-82.493273
Liberty Park,Lake Mary,Florida,United States,32746,9,0,28.771236,-81.354660
Limona Disc Golf Course,Brandon,Florida,United States,33510,9,2.4,27.955637,-82.296693
Lincoln Avenue Park West Disc Golf Course,Mount Dora,Florida,United States,32757,9,0,28.773053,-81.638118
Malabar Disc Golf,Malabar,Florida,United States,32950,18,2.8,27.980573,-80.569593
Markham Park,Sunrise,Florida,United States,33326,18,5,26.114333,-80.370670
McCarty Ranch Preserve Disc Golf Course,Port St. Lucie,Florida,United States,34987,18,0,27.290285,-80.497120
Moccasin Creek Disc Golf Course,Elkton,Florida,United States,32033,25,5,29.788112,-81.434324
Morgan Sports Center,Destin,Florida,United States,32541,18,4,30.392765,-86.469506
Mosquito Creek,Sebring,Florida,United States,33875,9,5,27.392358,-81.510491
Murdock Baptist Church Disc Golf Course,Port Charlotte,Florida,United States,33948,5,0,26.985889,-82.151742
Muscadine Meadows,Fort Pierce,Florida,United States,34951,9,0,27.532134,-80.418954
NAS Pensacola Corry Station,Pensacola,Florida,United States,32507,9,0,30.340176,-87.374340
NAS Whiting Field Disc Golf Course,Milton,Florida,United States,32570,9,3,30.804825,-86.967268
Nature Park Disc Golf at Forres Park,Mount Dora,Florida,United States,32757,9,0,28.773053,-81.638118
New World Disc Golf at Cecil Field,Jacksonville,Florida,United States,32221,20,5,30.256279,-81.853581
North Charlotte Regional Park,Port Charlotte,Florida,United States,33953,18,4.333335,26.999702,-82.212275
North East Coachman Park,Clearwater,Florida,United States,33765,18,3.5,27.974876,-82.745121
North Park,Ave Maria,Florida,United States,34142,9,0,26.342595,-81.313304
North Watertower Park,Sarasota,Florida,United States,34236,18,4.666665,27.316487,-82.553527
Northside Park,Gainesville,Florida,United States,32653,18,3.666665,29.745052,-82.393830
Northside Park,Tallahassee,Florida,United States,32312,9,0,30.605283,-84.229562
Ocala Greenway Disc Golf Course,Ocala,Florida,United States,34472,24,3.5,29.109474,-81.997364
Okeeheelee Park,West Palm Beach,Florida,United States,33413,18,4,26.663779,-80.151724
Oldsmar Disc Golf Course,Oldsmar,Florida,United States,34677,18,4.5,28.037526,-82.673020
Orangebrook Country Club,Hollywood,Florida,United States,33021,18,0,26.023130,-80.186539
Osprey Disc Golf Course,Hurlbert Field,Florida,United States,32544,5,3,30.426974,-86.696265
Oviedo Disc Golf Course at Shane Kelly Park,Oviedo,Florida,United States,32765,9,2.5,28.663876,-81.196278
Palm Bay Regional Disc Golf Course,Palm Bay,Florida,United States,32907,18,3.5,28.020804,-80.681247
Palm Springs Public Park,Naples,Florida,United States,34104,9,0,26.149955,-81.741562
Palmetto Bay Village Center,Palmetto Bay,Florida,United States,33157,21,3.5,25.606126,-80.343496
Palmetto Trails,Eustis,Florida,United States,32726,18,0,28.855051,-81.678843
Payne Park,Sarasota,Florida,United States,34237,9,4,27.338992,-82.512645
Peace Community Park,Bradenton,Florida,United States,34205,9,0,27.484084,-82.581821
PGA National Park,Palm Beach Gardens,Florida,United States,33418,18,1,26.872713,-80.165712
Picnic Island Disc Golf,Tampa,Florida,United States,33616,18,4,27.865136,-82.535394
Pirate Pointe Disc Golf Course,Fernandina Beach,Florida,United States,32034,9,0,30.609692,-81.491720
Pirates Cove at NLA,Milton,Florida,United States,32583,9,0,30.592511,-86.971003
Plantation Heritage Disc Golf Course,Plantation,Florida,United States,33317,18,4,26.112600,-80.227875
Post'l Point Disc Golf at Eglin Air Force Base,Eglin Air Force Base,Florida,United States,32542,18,4,30.464551,-86.525167
Radford Disc Golf Course,Pensacola,Florida,United States,32508,9,0,30.350614,-87.316902
Reed Canal Park Disc Golf Course,South Daytona,Florida,United States,32119,18,3,29.161116,-81.025740
River City Nature Park - Alpha,DeBary,Florida,United States,32713,18,4,28.883730,-81.325287
River City Nature Park - Barwick,DeBary,Florida,United States,32713,18,5,28.883730,-81.325287
Riverside Church Disc Golf Course,Fort Myers,Florida,United States,33912,18,0,26.534017,-81.826175
Riviera Bay Park,St. Petersburg,Florida,United States,33702,1,0,27.846613,-82.628690
Ronnie Van Zant Memorial,Green Cove Springs,Florida,United States,32043,36,3.25,29.937041,-81.732588
Rotary Park,Port St. Lucie,Florida,United States,34952,9,4,27.296128,-80.299313
Sawmill Disc Golf Course,Ocala,Florida,United States,34482,20,4,29.244387,-82.275029
Shady Brook Greenway Park,Lake Panasoffkee,Florida,United States,33585,9,0,28.730872,-82.086057
Showmen's Disc Golf Course,Riverview,Florida,United States,33578,18,0,27.862200,-82.350044
Silent Lake Disc Golf Course,Deerfield Beach,Florida,United States,33442,18,0,26.309175,-80.149813
South County Regional Park,Punta Gorda,Florida,United States,33950,18,0,26.902989,-82.046244
South Glencoe Disc Golf Course,New Smyrna Beach,Florida,United States,32168,18,0,28.963773,-81.029413
Southwest Middle School,Palm Bay,Florida,United States,32909,6,0,27.919258,-80.644232
Springfield Disc Golf Course at Klutho Park,Jacksonville,Florida,United States,32206,18,5,30.350191,-81.638776
St. Lucie Village Heritage Park,Fort Pierce,Florida,United States,34946,9,0,27.503294,-80.360480
Sun-N-Fun RV Resort,Sarasota,Florida,United States,34240,9,0,27.364246,-82.319337
Suncoast Golf Center,Sarasota,Florida,United States,34243,9,0,27.401013,-82.527887
Sunset Disc Golf Course,Gulf Breeze,Florida,United States,32561,18,2.666665,30.347061,-87.113185
Sunset Ridge Disc Golf Course,Hudson,Florida,United States,34667,18,4,28.391424,-82.662659
Taylor Park Disc Golf Course,Largo,Florida,United States,33755,18,4.42857,27.979914,-82.780506
The Baptist College of Florida,Graceville,Florida,United States,32440,9,0,30.922426,-85.526190
The Bear at Compass Lake,Alford,Florida,United States,32420,18,0,30.632365,-85.384570
The Bulldog DGC,Perry,Florida,United States,32347,9,0,30.174157,-83.611588
The Jet Stream Disc Golf Course at Snyder Park,Fort Lauderdale,Florida,United States,33315,18,0,26.087015,-80.152994
The LakeHawk at Lake Sumter State College,Leesburg,Florida,United States,34788,18,4,28.895617,-81.808248
The Magnolia Disc Golf Course,Live Oak,Florida,United States,32060,18,5,30.274413,-83.036329
The Monster at Majette Disc Golf Course,Panama City,Florida,United States,32404,18,0,30.189031,-85.506785
The Pine School,Hope Sound,Florida,United States,33455,9,0,27.053143,-80.161232
The Quarry Golf Course,Brooksville,Florida,United States,34601,9,3,28.588628,-82.351186
The View,Crestview,Florida,United States,32536,9,0,30.763783,-86.591616
The Way Disc Golf Course,Pace,Florida,United States,32571,9,5,30.674660,-87.208410
Tocobaga Disc Golf Course,St. Petersburg,Florida,United States,33711,18,4,27.738611,-82.687520
Tom Brown Park,Tallahassee,Florida,United States,32311,24,4.5,30.390100,-84.180808
Tortoise Run Disc Golf Course,North Fort Myers,Florida,United States,33903,18,3,26.679968,-81.906630
Tradewinds Park,Ft. Lauderdale,Florida,United States,33073,18,4.6,26.298240,-80.181415
Tradewoods DIsc Golf Course,Coconut Creek,Florida,United States,33066,18,0,26.252615,-80.170374
Trinity Baptist College - Red,Jacksonville,Florida,United States,32221,18,3,30.256279,-81.853581
Trinity Baptist College - White,Jacksonville,Florida,United States,32221,18,0,30.256279,-81.853581
Trinity College Florida,Trinity,Florida,United States,34655,18,0,28.203310,-82.619283
Tuscawilla Park,Daytona Beach,Florida,United States,32114,18,4,29.192394,-81.046774
Under the Oaks,Parker,Florida,United States,32404,9,0,30.189031,-85.506785
University of West Florida,Pensacola,Florida,United States,32514,18,0,30.531268,-87.221604
USF Riverfront Park,Tampa,Florida,United States,33617,18,4.5,28.035792,-82.391538
Valparaiso Glen Argyle,Valparaiso,Florida,United States,32580,9,0,30.490075,-86.514818
Wellfield Park,Venice,Florida,United States,34292,9,5,27.101944,-82.341525
West Delray Regional Park,Delray Beach,Florida,United States,33446,18,4,26.450443,-80.186185
Whispering Pines Park,Inverness,Florida,United States,34453,27,2,28.873782,-82.335157
Wickham Park,Melbourne,Florida,United States,32935,22,4,28.145509,-80.649958
Youth Park Disc Golf,Pinellas Park,Florida,United States,33781,18,3.333335,27.838362,-82.714996
Alexander Park,Lawrenceville,Georgia,United States,30044,18,4.25,33.922046,-84.065671
Apple Mountain,Clarkesville,Georgia,United States,30523,18,0,34.716543,-83.552878
Bainbridge High School,Bainbridge,Georgia,United States,39819,9,0,30.788581,-84.634069
Barnsley Gardens Resort,Adairsville,Georgia,United States,30103,9,0,34.366336,-84.917546
Bill Wood Park,Madison,Georgia,United States,30650,5,0,33.583689,-83.473544
Bobby Brown Park,Elberton,Georgia,United States,30635,9,0,34.105769,-82.793148
Bobcat 9,Senoia,Georgia,United States,30276,9,0,33.263670,-84.570824
Boundary Waters - One,Douglasville,Georgia,United States,30135,18,0,33.670520,-84.734280
Boundary Waters - Two,Douglasville,Georgia,United States,30135,18,0,33.670520,-84.734280
Brickyard Plantation Disc Golf Course,Americus,Georgia,United States,31709,18,0,32.064806,-84.123242
Bryant Commons Disc Golf Course,Hinesville,Georgia,United States,31313,9,0,31.844789,-81.612554
Bulloch Disc Golf Course - Practice 9,Statesboro,Georgia,United States,30458,9,0,32.399676,-81.828266
Bulloch Disc Golf Course - Main,Statesboro,Georgia,United States,30461,18,0,32.511828,-81.718844
Camp Woodmont,Cloudland,Georgia,United States,30731,18,2,34.587768,-85.477364
Central Baptist Church,Americus,Georgia,United States,31709,18,0,32.064806,-84.123242
Central Park Disc Golf Course,Cumming,Georgia,United States,30040,18,4,34.210349,-84.187794
Chamblee Church Disc Golf Course,Chamblee,Georgia,United States,30341,9,3,33.888505,-84.289532
